17.39,W,0.29,328.85,250713,,,D*76
43,N,12201.9259,W,2,8,0.87,88.2,M,-25.9,M,0000,0000*59
$GPRMC,032311.000,A,3717.3143,N,12201.9259,W,0.29,328.85,250713,,,D*76
Adafruit GPS library basic test!
$PMT`aÅ±šŠ¢bšRfHø’¨¦TK001,2,3fƒjRü$PGACK,33,1*6F
$PGTOP,11,2*6E
$GPGGA,032314.000,3717.3144,N,12201.9261,W,2,8,0.86,88.2,M,-25.9,M,0000,0000*51
$GPRMC,032314.000,A,3717.3144,N,12201.9261,W,0.12,328.85,250713,,,D*77
$PGTOP,11,2*6E
$GPGGA,032315.000,3717.3145,N,12201.9261,W,2,8,0.86,88.2,M,-25.9,M,0000,0000*51
$GPRMC,032315.000,A,3717.3145,N,12201.9261,W,0.15,328.85,250713,,,D*70
$PMTK705,AXN_2.10_3339_2012072601,5223,PA6H,1.0*6A
$PGTOP,11,2*6E
$GPGGA,032316.000,3717.3145,N,12201.9261,W,2,8,0.86,88.2,M,-25.9,M,0000,0000*52
$GPRMC,032316.000,A,3717.3145,N,12201.9261,W,0.15,328.85,250713,,,D*73
$PGTOP,11,2*6E
$GPGGA,032317.000,3717.3145,N,12201.9261,W,2,8,0.86,88.2,M,-25.9,M,0000,0000*53
$GPRMC,032317.000,A,3717.3145,N,12201.9261,W,0.20,328.85,250713,,,D*74
$PGTOP,11,2*6E
$GPGGA,032318.000,3717.3146,N,12201.9260,W,2,8,0.86,88.3,M,-25.9,M,0000,0000*5F
$GPRMC,032318.000,A,3717.3146,N,12201.9260,W,0.22,328.85,250713,,,D*7B
$PGTOP,11,2*6E
$GPGGA,032319.000,3717.3147,N,12201.9261,W,2,8,0.87,88.3,M,-25.9,M,0000,0000*5F
$GPRMC,032319.000,A,3717.3147,N,12201.9261,W,0.18,328.85,250713,,,D*73
$PGTOP,11,2*6E
$GPGGA,032320.000,3717.3147,N,12201.9261,W,2,8,0.87,88.3,M,-25.9,M,0000,0000*55
$GPRMC,032320.000,A,3717.3147,N,12201.9261,W,0.20,328.85,250713,,,D*72
$PGTOP,11,2*6E
$GPGGA,032321.000,3717.3148,N,12201.9261,W,2,8,0.86,88.3,M,-25.9,M,0000,0000*5A
$GPRMC,032321.000,A,3717.3148,N,12201.9261,W,0.27,328.85,250713,,,D*7B
$PGTOP,11,2*6E
$GPGGA,032322.000,3717.3148,N,12201.9262,W,2,8,0.86,88.3,M,-25.9,M,0000,0000*5A
$GPRMC,032322.000,A,3717.3148,N,12201.9262,W,0.35,328.85,250713,,,D*78
$PGTOP,11,2*6E
$GPGGA,032323.000,3717.3149,N,12201.9262,W,2,8,0.86,88.3,M,-25.9,M,0000,0000*5A
$GPRMC,032323.000,A,3717.3149,N,12201.9262,W,0.36,328.85,250713,,,D*7B
$PGTOP,11,2*6E
$GPGGA,032324.000,3717.3150,N,12201.9262,W,2,8,0.87,88.3,M,-25.9,M,0000,0000*54
$GPRMC,032324.000,A,3717.3150,N,12201.9262,W,0.32,328.85,250713,,,D*70
$PGTOP,11,2*6E
$GPGGA,032325.000,3717.3151,N,12201.9262,W,2,8,0.87,88.3,M,-25.9,M,0000,0000*54
$GPRMC,032325.000,A,3717.3151,N,12201.9262,W,0.26,328.85,250713,,,D*75
$PGTOP,11,2*6E
$GPGGA,032326.000,3717.3152,N,12201.9262,W,2,8,0.87,88.3,M,-25.9,M,0000,0000*54
$GPRMC,032326.000,A,3717.3152,N,12201.9262,W,0.37,328.85,250713,,,D*75
$PGTOP,11,2*6E
$GPGGA,032327.000,3717.3153,N,12201.9262,W,2,8,0.86,88.3,M,-25.9,M,0000,0000*55
$GPRMC,032327.000,A,3717.3153,N,12201.9262,W,0.32,328.85,250713,,,D*70
$PGTOP,11,2*6E
$GPGGA,032328.000,3717.3154,N,12201.9262,W,2,8,0.87,88.3,M,-25.9,M,0000,0000*5C
$GPRMC,032328.000,A,3717.3154,N,12201.9262,W,0.21,328.85,250713,,,D*7A
$PGTOP,11,2*6E
$GPGGA,032329.000,3717.3154,N,12201.9262,W,2,8,0.87,88.3,M,-25.9,M,0000,0000*5D
$GPRMC,032329.000,A,3717.3154,N,12201.9262,W,0.17,328.85,250713,,,D*7E
$PGTOP,11,2*6E
$GPGGA,032330.000,3717.3155,N,12201.9261,W,2,8,0.86,88.3,M,-25.9,M,0000,0000*56
$GPRMC,032330.000,A,3717.3155,N,12201.9261,W,0.15,328.85,250713,,,D*76
$PGTOP,11,2*6E
$GPGGA,032331.000,3717.3155,N,12201.9261,W,2,8,0.86,88.3,M,-25.9,M,0000,0000*57
$GPRMC,032331.000,A,3717.3155,N,12201.9261,W,0.16,328.85,250713,,,D*74
$PGTOP,11,2*6E
$GPGGA,032332.000,3717.3156,N,12201.9261,W,2,8,0.87,88.3,M,-25.9,M,0000,0000*56
$GPRMC,032332.000,A,3717.3156,N,12201.9261,W,0.16,328.85,250713,,,D*74
$PGTOP,11,2*6E
$GPGGA,032333.000,3717.3156,N,12201.9261,W,2,8,0.87,88.3,M,-25.9,M,0000,0000*57
$GPRMC,032333.000,A,3717.3156,N,12201.9261,W,0.20,328.85,250713,,,D*70
$PGTOP,11,2*6E
$GPGGA,032334.000,3717.3157,N,12201.9261,W,2,8,0.87,88.3,M,-25.9,M,0000,0000*51
$GPRMC,032334.000,A,3717.3157,N,12201.9261,W,0.29,328.85,250713,,,D*7F
$PGTOP,11,2*6E
$GPGGA,032335.000,3717.3158,N,12201.9261,W,2,8,0.87,88.3,M,-25.9,M,0000,0000*5F
$GPRMC,032335.000,A,3717.3158,N,12201.9261,W,0.38,328.85,250713,,,D*71
$PGTOP,11,2*6E
$GPGGA,032336.000,3717.3159,N,12201.9262,W,2,8,0.86,88.3,M,-25.9,M,0000,0000*5F
$GPRMC,032336.000,A,3717.3159,N,12201.9262,W,0.39,328.85,250713,,,D*71
$PGTOP,11,2*6E
$GPGGA,032337.000,3717.3160,N,12201.9262,W,2,8,0.86,88.3,M,-25.9,M,0000,0000*54
$GPRMC,032337.000,A,3717.3160,N,12201.9262,W,0.31,328.85,250713,,,D*72
$PGTOP,11,2*6E
$GPGGA,032338.000,3717.3160,N,12201.9262,W,2,8,0.87,88.3,M,-25.9,M,0000,0000*5A
$GPRMC,032338.000,A,3717.3160,N,12201.9262,W,0.30,328.85,250713,,,D*7C
$PGTOP,11,2*6E
$GPGGA,032339.000,3717.3161,N,12201.9262,W,2,8,0.86,88.3,M,-25.9,M,0000,0000*5B
$GPRMC,032339.000,A,3717.3161,N,12201.9262,W,0.39,328.85,250713,,,D*75
$PGTOP,11,2*6E
$GPGGA,032340.000,3717.3162,N,12201.9263,W,2,8,0.86,88.3,M,-25.9,M,0000,0000*57
$GPRMC,032340.000,A,3717.3162,N,12201.9263,W,0.36,328.85,250713,,,D*76
$PGTOP,11,2*6E
$GPGGA,032341.000,3717.3163,N,12201.9263,W,2,8,0.86,88.3,M,-25.9,M,0000,0000*57
$GPRMC,032341.000,A,3717.3163,N,12201.9263,W,0.36,328.85,250713,,,D*76
$PGTOP,11,2*6E
$GPGGA,032342.000,3717.3164,N,12201.9264,W,2,8,0.86,88.3,M,-25.9,M,0000,0000*54
$GPRMC,032342.000,A,3717.3164,N,12201.9264,W,0.30,328.85,250713,,,D*73
$PGTOP,11,2*6E
$GPGGA,032343.000,3717.3165,N,12201.9265,W,2,8,0.86,88.3,M,-25.9,M,0000,0000*55
$GPRMC,032343.000,A,3717.3165,N,12201.9265,W,0.25,328.85,250713,,,D*76
$PGTOP,11,2*6E
$GPGGA,032344.000,3717.3166,N,12201.9265,W,2,8,0.87,88.3,M,-25.9,M,0000,0000*50
$GPRMC,032344.000,A,3717.3166,N,12201.9265,W,0.16,328.85,250713,,,D*72
$PGTOP,11,2*6E
$GPGGA,032345.000,3717.3166,N,12201.9265,W,2,8,0.86,88.3,M,-25.9,M,0000,0000*50
$GPRMC,032345.000,A,3717.3166,N,12201.9265,W,0.12,328.85,250713,,,D*77
$PGTOP,11,2*6E
$GPGGA,032346.000,3717.3166,N,12201.9265,W,2,8,0.86,88.3,M,-25.9,M,0000,0000*53
$GPRMC,032346.000,A,3717.3166,N,12201.9265,W,0.23,328.85,250713,,,D*76
$PGTOP,11,2*6E
$GPGGA,032347.000,3717.3167,N,12201.9265,W,2,8,0.86,88.3,M,-25.9,M,0000,0000*53
$GPRMC,032347.000,A,3717.3167,N,12201.9265,W,0.38,328.85,250713,,,D*7C
$PGTOP,11,2*6E
$GPGGA,032348.000,3717.3168,N,12201.9265,W,2,8,0.87,88.3,M,-25.9,M,0000,0000*52
$GPRMC,032348.000,A,3717.3168,N,12201.9265,W,0.40,328.85,250713,,,D*73
$PGTOP,11,2*6E
$GPGGA,032349.000,3717.3169,N,12201.9265,W,2,8,0.87,88.3,M,-25.9,M,0000,0000*52
$GPRMC,032349.000,A,3717.3169,N,12201.9265,W,0.29,328.85,250713,,,D*7C
$PGTOP,11,2*6E
$GPGGA,032350.000,3717.3170,N,12201.9265,W,2,8,0.87,88.3,M,-25.9,M,0000,0000*52
$GPRMC,032350.000,A,3717.3170,N,12201.9265,W,0.26,328.85,250713,,,D*73
$PGTOP,11,2*6E
$GPGGA,032351.000,3717.3171,N,12201.9265,W,2,8,0.87,88.3,M,-25.9,M,0000,0000*52
$GPRMC,032351.000,A,3717.3171,N,12201.9265,W,0.31,328.85,250713,,,D*75
$PGTOP,11,2*6E
$GPGGA,032352.000,3717.3171,N,12201.9266,W,2,8,0.86,88.3,M,-25.9,M,0000,0000*53
$GPRMC,032352.000,A,3717.3171,N,12201.9266,W,0.25,328.85,250713,,,D*70
$PGTOP,11,2*6E
$GPGGA,032353.000,3717.3172,N,12201.9266,W,2,8,0.86,88.3,M,-25.9,M,0000,0000*51
$GPRMC,032353.000,A,3717.3172,N,12201.9266,W,0.09,328.85,250713,,,D*7C
$PGTOP,11,2*6E
$GPGGA,032354.000,3717.3172,N,12201.9266,W,2,8,0.86,88.3,M,-25.9,M,0000,0000*56
$GPRMC,032354.000,A,3717.3172,N,12201.9266,W,0.10,328.85,250713,,,D*73
$PGTOP,11,2*6E
$GPGGA,032355.000,3717.3172,N,12201.9267,W,2,8,0.86,88.3,M,-25.9,M,0000,0000*56
$GPRMC,032355.000,A,3717.3172,N,12201.9267,W,0.16,328.85,250713,,,D*75
$PGTOP,11,2*6E
$GPGGA,032356.000,3717.3172,N,12201.9267,W,2,8,0.86,88.3,M,-25.9,M,0000,0000*55
$GPRMC,032356.000,A,3717.3172,N,12201.9267,W,0.16,328.85,250713,,,D*76
$PGTOP,11,2*6E
$GPGGA,032357.000,3717.3172,N,12201.9268,W,2,8,0.86,88.4,M,-25.9,M,0000,0000*5C
$GPRMC,032357.000,A,3717.3172,N,12201.9268,W,0.17,328.85,250713,,,D*79
$PGTOP,11,2*6E
$GPGGA,032358.000,3717.3172,N,12201.9268,W,2,8,0.86,88.4,M,-25.9,M,0000,0000*53
$GPRMC,032358.000,A,3717.3172,N,12201.9268,W,0.03,328.85,250713,,,D*73
$PGTOP,11,2*6E
$GPGGA,032359.000,3717.3172,N,12201.9268,W,2,8,0.86,88.4,M,-25.9,M,0000,0000*52
$GPRMC,032359.000,A,3717.3172,N,12201.9268,W,0.17,328.85,250713,,,D*77
$PGTOP,11,2*6E
$GPGGA,032400.000,3717.3172,N,12201.9268,W,2,8,0.86,88.4,M,-25.9,M,0000,0000*59
$GPRMC,032400.000,A,3717.3172,N,12201.9268,W,0.38,328.85,250713,,,D*71
$PGTOP,11,2*6E
$GPGGA,032401.000,3717.3171,N,12201.9267,W,2,8,0.86,88.4,M,-25.9,M,0000,0000*54
$GPRMC,032401.000,A,3717.3171,N,12201.9267,W,0.41,328.85,250713,,,D*72
$PGTOP,11,2*6E
$GPGGA,032402.000,3717.3170,N,12201.9266,W,2,8,0.86,88.4,M,-25.9,M,0000,0000*57
$GPRMC,032402.000,A,3717.3170,N,12201.9266,W,0.32,328.85,250713,,,D*75
$PGTOP,11,2*6E
$GPGGA,032403.000,3717.3169,N,12201.9265,W,2,8,0.86,88.4,M,-25.9,M,0000,0000*5D
$GPRMC,032403.000,A,3717.3169,N,12201.9265,W,0.18,328.85,250713,,,D*77
$PGTOP,11,2*6E
$GPGGA,032404.000,3717.3169,N,12201.9265,W,2,8,0.86,88.4,M,-25.9,M,0000,0000*5A
$GPRMC,032404.000,A,3717.3169,N,12201.9265,W,0.16,328.85,250713,,,D*7E
$PGTOP,11,2*6E
$GPGGA,032405.000,3717.3169,N,12201.9264,W,2,8,0.86,88.4,M,-25.9,M,0000,0000*5A
$GPRMC,032405.000,A,3717.3169,N,12201.9264,W,0.12,328.85,250713,,,D*7A
$PGTOP,11,2*6E
$GPGGA,032406.000,3717.3169,N,12201.9264,W,2,8,0.86,88.4,M,-25.9,M,0000,0000*59
$GPRMC,032406.000,A,3717.3169,N,12201.9264,W,0.05,328.85,250713,,,D*7F
$PGTOP,11,2*6E
$GPGGA,032407.000,3717.3169,N,12201.9264,W,2,8,0.86,88.4,M,-25.9,M,0000,0000*58
$GPRMC,032407.000,A,3717.3169,N,12201.9264,W,0.11,328.85,250713,,,D*7B
$PGTOP,11,2*6E
$GPGGA,032408.000,3717.3169,N,12201.9264,W,2,8,0.86,88.4,M,-25.9,M,0000,0000*57
$GPRMC,032408.000,A,3717.3169,N,12201.9264,W,0.03,328.85,250713,,,D*77
$PGTOP,11,2*6E
$GPGGA,032409.000,3717.3169,N,12201.9264,W,2,8,0.86,88.4,M,-25.9,M,0000,0000*56
$GPRMC,032409.000,A,3717.3169,N,12201.9264,W,0.02,328.85,250713,,,D*77
$PGTOP,11,2*6E
$GPGGA,032410.000,3717.3169,N,12201.9264,W,2,8,0.86,88.4,M,-25.9,M,0000,0000*5E
$GPRMC,032410.000,A,3717.3169,N,12201.9264,W,0.14,328.85,250713,,,D*78
$PGTOP,11,2*6E
$GPGGA,032411.000,3717.3169,N,12201.9264,W,2,8,0.86,88.4,M,-25.9,M,0000,0000*5F
$GPRMC,032411.000,A,3717.3169,N,12201.9264,W,0.03,328.85,250713,,,D*7F
$PGTOP,11,2*6E
$GPGGA,032412.000,3717.3169,N,12201.9264,W,2,8,0.86,88.4,M,-25.9,M,0000,0000*5C
$GPRMC,032412.000,A,3717.3169,N,12201.9264,W,0.03,328.85,250713,,,D*7C
$PGTOP,11,2*6E
$GPGGA,032413.000,3717.3169,N,12201.9264,W,2,8,0.86,88.5,M,-25.9,M,0000,0000*5C
$GPRMC,032413.000,A,3717.3169,N,12201.9264,W,0.06,328.85,250713,,,D*78
$PGTOP,11,2*6E
$GPGGA,032414.000,3717.3169,N,12201.9264,W,2,8,0.86,88.5,M,-25.9,M,0000,0000*5B
$GPRMC,032414.000,A,3717.3169,N,12201.9264,W,0.16,328.85,250713,,,D*7E
$PGTOP,11,2*6E
$GPGGA,032415.000,3717.3168,N,12201.9265,W,2,8,0.86,88.5,M,-25.9,M,0000,0000*5A
$GPRMC,032415.000,A,3717.3168,N,12201.9265,W,0.23,328.85,250713,,,D*79
$PGTOP,11,2*6E
$GPGGA,032416.000,3717.3168,N,12201.9264,W,2,8,0.86,88.5,M,-25.9,M,0000,0000*58
$GPRMC,032416.000,A,3717.3168,N,12201.9264,W,0.24,328.85,250713,,,D*7C
$PGTOP,11,2*6E
$GPGGA,032417.000,3717.3167,N,12201.9264,W,2,8,0.86,88.5,M,-25.9,M,0000,0000*56
$GPRMC,032417.000,A,3717.3167,N,12201.9264,W,0.20,328.85,250713,,,D*76
$PGTOP,11,2*6E
$GPGGA,032418.000,3717.3167,N,12201.9264,W,2,8,0.86,88.5,M,-25.9,M,0000,0000*59
$GPRMC,032418.000,A,3717.3167,N,12201.9264,W,0.13,328.85,250713,,,D*79
$PGTOP,11,2*6E
$GPGGA,032419.000,3717.3166,N,12201.9264,W,2,8,0.86,88.5,M,-25.9,M,0000,0000*59
$GPRMC,032419.000,A,3717.3166,N,12201.9264,W,0.15,328.85,250713,,,D*7F
$PGTOP,11,2*6E
$GPGGA,032420.000,3717.3166,N,12201.9265,W,2,8,0.86,88.5,M,-25.9,M,0000,0000*52
$GPRMC,032420.000,A,3717.3166,N,12201.9265,W,0.11,328.85,250713,,,D*70
$PGTOP,11,2*6E
$GPGGA,032421.000,3717.3166,N,12201.9265,W,2,8,0.86,88.5,M,-25.9,M,0000,0000*53
$GPRMC,032421.000,A,3717.3166,N,12201.9265,W,0.18,328.85,250713,,,D*78
$PGTOP,11,2*6E
$GPGGA,032422.000,3717.3165,N,12201.9265,W,2,8,0.86,88.5,M,-25.9,M,0000,0000*53
$GPRMC,032422.000,A,3717.3165,N,12201.9265,W,0.20,328.85,250713,,,D*73
$PGTOP,11,2*6E
$GPGGA,032423.000,3717.3165,N,12201.9264,W,2,8,0.86,88.5,M,-25.9,M,0000,0000*53
$GPRMC,032423.000,A,3717.3165,N,12201.9264,W,0.16,328.85,250713,,,D*76
$PGTOP,11,2*6E
$GPGGA,032424.000,3717.3164,N,12201.9264,W,2,8,0.86,88.5,M,-25.9,M,0000,0000*55
$GPRMC,032424.000,A,3717.3164,N,12201.9264,W,0.15,328.85,250713,,,D*73
$PGTOP,11,2*6E
$GPGGA,032425.000,3717.3164,N,12201.9264,W,2,8,0.86,88.5,M,-25.9,M,0000,0000*54
$GPRMC,032425.000,A,3717.3164,N,12201.9264,W,0.14,328.85,250713,,,D*73
$PGTOP,11,2*6E
$GPGGA,032426.000,3717.3164,N,12201.9264,W,2,8,0.86,88.5,M,-25.9,M,0000,0000*57
$GPRMC,032426.000,A,3717.3164,N,12201.9264,W,0.23,328.85,250713,,,D*74
$PGTOP,11,2*6E
$GPGGA,032427.000,3717.3163,N,12201.9264,W,2,8,0.86,88.5,M,-25.9,M,0000,0000*51
$GPRMC,032427.000,A,3717.3163,N,12201.9264,W,0.15,328.85,250713,,,D*77
$PGTOP,11,2*6E
$GPGGA,032428.000,3717.3163,N,12201.9264,W,2,8,0.86,88.5,M,-25.9,M,0000,0000*5E
$GPRMC,032428.000,A,3717.3163,N,12201.9264,W,0.14,328.85,250713,,,D*79
$PGTOP,11,2*6E
$GPGGA,032429.000,3717.3162,N,12201.9264,W,2,8,0.86,88.5,M,-25.9,M,0000,0000*5E
$GPRMC,032429.000,A,3717.3162,N,12201.9264,W,0.23,328.85,250713,,,D*7D
$PGTOP,11,2*6E
$GPGGA,032430.000,3717.3162,N,12201.9264,W,2,8,0.86,88.5,M,-25.9,M,0000,0000*56
$GPRMC,032430.000,A,3717.3162,N,12201.9264,W,0.25,328.85,250713,,,D*73
$PGTOP,11,2*6E
$GPGGA,032431.000,3717.3161,N,12201.9264,W,2,8,0.86,88.5,M,-25.9,M,0000,0000*54
$GPRMC,032431.000,A,3717.3161,N,12201.9264,W,0.22,328.85,250713,,,D*76
$PGTOP,11,2*6E
$GPGGA,032432.000,3717.3160,N,12201.9265,W,2,8,0.86,88.5,M,-25.9,M,0000,0000*57
$GPRMC,032432.000,A,3717.3160,N,12201.9265,W,0.24,328.85,250713,,,D*73
$PGTOP,11,2*6E
$GPGGA,032433.000,3717.3160,N,12201.9265,W,2,8,0.86,88.5,M,-25.9,M,0000,0000*56
$GPRMC,032433.000,A,3717.3160,N,12201.9265,W,0.21,328.85,250713,,,D*77
$PGTOP,11,2*6E
$GPGGA,032434.000,3717.3159,N,12201.9266,W,2,8,0.86,88.5,M,-25.9,M,0000,0000*58
$GPRMC,032434.000,A,3717.3159,N,12201.9266,W,0.14,328.85,250713,,,D*7F
$PGTOP,11,2*6E
$GPGGA,032435.000,3717.3159,N,12201.9266,W,2,8,0.86,88.5,M,-25.9,M,0000,0000*59
$GPRMC,032435.000,A,3717.3159,N,12201.9266,W,0.15,328.85,250713,,,D*7F
$PGTOP,11,2*6E
$GPGGA,032436.000,3717.3159,N,12201.9266,W,2,8,0.86,88.5,M,-25.9,M,0000,0000*5A
$GPRMC,032436.000,A,3717.3159,N,12201.9266,W,0.17,328.85,250713,,,D*7E
$PGTOP,11,2*6E
$GPGGA,032437.000,3717.3158,N,12201.9267,W,2,8,0.86,88.5,M,-25.9,M,0000,0000*5B
$GPRMC,032437.000,A,3717.3158,N,12201.9267,W,0.21,328.85,250713,,,D*7A
$PGTOP,11,2*6E
$GPGGA,032438.000,3717.3158,N,12201.9267,W,2,8,0.86,88.6,M,-25.9,M,0000,0000*57
$GPRMC,032438.000,A,3717.3158,N,12201.9267,W,0.22,328.85,250713,,,D*76
$PGTOP,11,2*6E
$GPGGA,032439.000,3717.3157,N,12201.9267,W,2,8,0.86,88.6,M,-25.9,M,0000,0000*59
$GPRMC,032439.000,A,3717.3157,N,12201.9267,W,0.11,328.85,250713,,,D*78
$PGTOP,11,2*6E
$GPGGA,032440.000,3717.3157,N,12201.9267,W,2,8,0.86,88.6,M,-25.9,M,0000,0000*57
$GPRMC,032440.000,A,3717.3157,N,12201.9267,W,0.22,328.85,250713,,,D*76
$PGTOP,11,2*6E
$GPGGA,032441.000,3717.3156,N,12201.9266,W,2,8,0.86,88.6,M,-25.9,M,0000,0000*56
$GPRMC,032441.000,A,3717.3156,N,12201.9266,W,0.24,328.85,250713,,,D*71
$PGTOP,11,2*6E
$GPGGA,032442.000,3717.3156,N,12201.9266,W,2,8,0.86,88.6,M,-25.9,M,0000,0000*55
$GPRMC,032442.000,A,3717.3156,N,12201.9266,W,0.15,328.85,250713,,,D*70
$PGTOP,11,2*6E
$GPGGA,032443.000,3717.3155,N,12201.9266,W,2,8,0.86,88.6,M,-25.9,M,0000,0000*57
$GPRMC,032443.000,A,3717.3155,N,12201.9266,W,0.13,328.85,250713,,,D*74
$PGTOP,11,2*6E
$GPGGA,032444.000,3717.3155,N,12201.9266,W,2,8,0.86,88.6,M,-25.9,M,0000,0000*50
$GPRMC,032444.000,A,3717.3155,N,12201.9266,W,0.03,328.85,250713,,,D*72
$PGTOP,11,2*6E
$GPGGA,032445.000,3717.3155,N,12201.9266,W,2,8,0.86,88.6,M,-25.9,M,0000,0000*51
$GPRMC,032445.000,A,3717.3155,N,12201.9266,W,0.06,328.85,250713,,,D*76
$PGTOP,11,2*6E
$GPGGA,032446.000,3717.3155,N,12201.9266,W,2,8,0.86,88.6,M,-25.9,M,0000,0000*52
$GPRMC,032446.000,A,3717.3155,N,12201.9266,W,0.05,328.85,250713,,,D*76
$PGTOP,11,2*6E
$GPGGA,032447.000,3717.3155,N,12201.9266,W,2,8,0.86,88.6,M,-25.9,M,0000,0000*53
$GPRMC,032447.000,A,3717.3155,N,12201.9266,W,0.04,328.85,250713,,,D*76
$PGTOP,11,2*6E
$GPGGA,032448.000,3717.3155,N,12201.9266,W,2,8,0.86,88.6,M,-25.9,M,0000,0000*5C
$GPRMC,032448.000,A,3717.3155,N,12201.9266,W,0.02,328.85,250713,,,D*7F
$PGTOP,11,2*6E
$GPGGA,032449.000,3717.3155,N,12201.9266,W,2,8,0.86,88.6,M,-25.9,M,0000,0000*5D
$GPRMC,032449.000,A,3717.3155,N,12201.9266,W,0.12,328.85,250713,,,D*7F
$PGTOP,11,2*6E
$GPGGA,032450.000,3717.3154,N,12201.9266,W,2,8,0.86,88.6,M,-25.9,M,0000,0000*54
$GPRMC,032450.000,A,3717.3154,N,12201.9266,W,0.17,328.85,250713,,,D*73
$PGTOP,11,2*6E
$GPGGA,032451.000,3717.3154,N,12201.9266,W,2,8,0.86,88.6,M,-25.9,M,0000,0000*55
$GPRMC,032451.000,A,3717.3154,N,12201.9266,W,0.13,328.85,250713,,,D*76
$PGTOP,11,2*6E
$GPGGA,032452.000,3717.3154,N,12201.9266,W,2,8,0.86,88.6,M,-25.9,M,0000,0000*56
$GPRMC,032452.000,A,3717.3154,N,12201.9266,W,0.10,328.85,250713,,,D*76
$PGTOP,11,2*6E
$GPGGA,032453.000,3717.3153,N,12201.9266,W,2,8,0.86,88.7,M,-25.9,M,0000,0000*51
$GPRMC,032453.000,A,3717.3153,N,12201.9266,W,0.04,328.85,250713,,,D*75
$PGTOP,11,2*6E
$GPGGA,032454.000,3717.3153,N,12201.9266,W,2,8,0.86,88.7,M,-25.9,M,0000,0000*56
$GPRMC,032454.000,A,3717.3153,N,12201.9266,W,0.08,328.85,250713,,,D*7E
$PGTOP,11,2*6E
$GPGGA,032455.000,3717.3153,N,12201.9266,W,2,8,0.86,88.7,M,-25.9,M,0000,0000*57
$GPRMC,032455.000,A,3717.3153,N,12201.9266,W,0.04,328.85,250713,,,D*73
$PGTOP,11,2*6E
$GPGGA,032456.000,3717.3153,N,12201.9266,W,2,8,0.86,88.7,M,-25.9,M,0000,0000*54
$GPRMC,032456.000,A,3717.3153,N,12201.9266,W,0.06,328.85,250713,,,D*72
$PGTOP,11,2*6E
$GPGGA,032457.000,3717.3153,N,12201.9266,W,2,8,0.86,88.7,M,-25.9,M,0000,0000*55
$GPRMC,032457.000,A,3717.3153,N,12201.9266,W,0.03,328.85,250713,,,D*76
$PGTOP,11,2*6E
$GPGGA,032458.000,3717.3153,N,12201.9266,W,2,8,0.86,88.7,M,-25.9,M,0000,0000*5A
$GPRMC,032458.000,A,3717.3153,N,12201.9266,W,0.06,328.85,250713,,,D*7C
$PGTOP,11,2*6E
$GPGGA,032459.000,3717.3153,N,12201.9266,W,2,8,0.86,88.7,M,-25.9,M,0000,0000*5B
$GPRMC,032459.000,A,3717.3153,N,12201.9266,W,0.06,328.85,250713,,,D*7D
$PGTOP,11,2*6E
$GPGGA,032500.000,3717.3153,N,12201.9266,W,2,8,0.86,88.7,M,-25.9,M,0000,0000*56
$GPRMC,032500.000,A,3717.3153,N,12201.9266,W,0.13,328.85,250713,,,D*74
$PGTOP,11,2*6E
$GPGGA,032501.000,3717.3153,N,12201.9265,W,2,8,0.86,88.7,M,-25.9,M,0000,0000*54
$GPRMC,032501.000,A,3717.3153,N,12201.9265,W,0.15,328.85,250713,,,D*70
$PGTOP,11,2*6E
$GPGGA,032502.000,3717.3152,N,12201.9265,W,2,8,0.86,88.7,M,-25.9,M,0000,0000*56
$GPRMC,032502.000,A,3717.3152,N,12201.9265,W,0.25,328.85,250713,,,D*71
$PGTOP,11,2*6E
$GPGGA,032503.000,3717.3152,N,12201.9265,W,2,8,0.86,88.7,M,-25.9,M,0000,0000*57
$GPRMC,032503.000,A,3717.3152,N,12201.9265,W,0.30,328.85,250713,,,D*74
$PGTOP,11,2*6E
$GPGGA,032504.000,3717.3151,N,12201.9264,W,2,8,0.86,88.7,M,-25.9,M,0000,0000*52
$GPRMC,032504.000,A,3717.3151,N,12201.9264,W,0.17,328.85,250713,,,D*74
$PGTOP,11,2*6E
$GPGGA,032505.000,3717.3151,N,12201.9264,W,2,8,0.86,88.7,M,-25.9,M,0000,0000*53
$GPRMC,032505.000,A,3717.3151,N,12201.9264,W,0.04,328.85,250713,,,D*77
$PGTOP,11,2*6E
$GPGGA,032506.000,3717.3151,N,12201.9264,W,2,8,0.86,88.7,M,-25.9,M,0000,0000*50
$GPRMC,032506.000,A,3717.3151,N,12201.9264,W,0.12,328.85,250713,,,D*73
$PGTOP,11,2*6E
$GPGGA,032507.000,3717.3151,N,12201.9264,W,2,8,0.86,88.7,M,-25.9,M,0000,0000*51
$GPRMC,032507.000,A,3717.3151,N,12201.9264,W,0.15,328.85,250713,,,D*75
$PGTOP,11,2*6E
$GPGGA,032508.000,3717.3151,N,12201.9264,W,2,8,0.86,88.7,M,-25.9,M,0000,0000*5E
$GPRMC,032508.000,A,3717.3151,N,12201.9264,W,0.13,328.85,250713,,,D*7C
$PGTOP,11,2*6E
$GPGGA,032509.000,3717.3152,N,12201.9265,W,2,8,0.86,88.7,M,-25.9,M,0000,0000*5D
$GPRMC,032509.000,A,3717.3152,N,12201.9265,W,0.26,328.85,250713,,,D*79
$PGTOP,11,2*6E
$GPGGA,032510.000,3717.3152,N,12201.9265,W,2,8,0.87,88.7,M,-25.9,M,0000,0000*54
$GPRMC,032510.000,A,3717.3152,N,12201.9265,W,0.20,328.85,250713,,,D*77
$PGTOP,11,2*6E
$GPGGA,032511.000,3717.3153,N,12201.9265,W,2,8,0.87,88.7,M,-25.9,M,0000,0000*54
$GPRMC,032511.000,A,3717.3153,N,12201.9265,W,0.10,328.85,250713,,,D*74
$PGTOP,11,2*6E
$GPGGA,032512.000,3717.3153,N,12201.9265,W,2,8,0.87,88.7,M,-25.9,M,0000,0000*57
$GPRMC,032512.000,A,3717.3153,N,12201.9265,W,0.07,328.85,250713,,,D*71
$PGTOP,11,2*6E
$GPGGA,032513.000,3717.3153,N,12201.9265,W,2,8,0.86,88.7,M,-25.9,M,0000,0000*57
$GPRMC,032513.000,A,3717.3153,N,12201.9265,W,0.13,328.85,250713,,,D*75
$PGTOP,11,2*6E
$GPGGA,032514.000,3717.3153,N,12201.9265,W,2,8,0.86,88.8,M,-25.9,M,0000,0000*5F
$GPRMC,032514.000,A,3717.3153,N,12201.9265,W,0.04,328.85,250713,,,D*74
$PGTOP,11,2*6E
$GPGGA,032515.000,3717.3153,N,12201.9265,W,2,8,0.86,88.8,M,-25.9,M,0000,0000*5E
$GPRMC,032515.000,A,3717.3153,N,12201.9265,W,0.08,328.85,250713,,,D*79
$PGTOP,11,2*6E
$GPGGA,032516.000,3717.3153,N,12201.9265,W,2,8,0.86,88.8,M,-25.9,M,0000,0000*5D
$GPRMC,032516.000,A,3717.3153,N,12201.9265,W,0.14,328.85,250713,,,D*77
$PGTOP,11,2*6E
$GPGGA,032517.000,3717.3154,N,12201.9266,W,2,8,0.86,88.8,M,-25.9,M,0000,0000*58
$GPRMC,032517.000,A,3717.3154,N,12201.9266,W,0.13,328.85,250713,,,D*75
$PGTOP,11,2*6E
$GPGGA,032518.000,3717.3154,N,12201.9266,W,2,8,0.86,88.8,M,-25.9,M,0000,0000*57
$GPRMC,032518.000,A,3717.3154,N,12201.9266,W,0.10,328.85,250713,,,D*79
$PGTOP,11,2*6E
$GPGGA,032519.000,3717.3154,N,12201.9267,W,2,8,0.86,88.8,M,-25.9,M,0000,0000*57
$GPRMC,032519.000,A,3717.3154,N,12201.9267,W,0.13,328.85,250713,,,D*7A
$PGTOP,11,2*6E
$GPGGA,032520.000,3717.3154,N,12201.9267,W,2,8,0.86,88.8,M,-25.9,M,0000,0000*5D
$GPRMC,032520.000,A,3717.3154,N,12201.9267,W,0.22,328.85,250713,,,D*72
$PGTOP,11,2*6E
$GPGGA,032521.000,3717.3154,N,12201.9268,W,2,8,0.86,88.8,M,-25.9,M,0000,0000*53
$GPRMC,032521.000,A,3717.3154,N,12201.9268,W,0.21,328.85,250713,,,D*7F
$PGTOP,11,2*6E
$GPGGA,032522.000,3717.3154,N,12201.9268,W,2,8,0.86,88.8,M,-25.9,M,0000,0000*50
$GPRMC,032522.000,A,3717.3154,N,12201.9268,W,0.08,328.85,250713,,,D*77
$PGTOP,11,2*6E
$GPGGA,032523.000,3717.3154,N,12201.9269,W,2,8,0.86,88.8,M,-25.9,M,0000,0000*50
$GPRMC,032523.000,A,3717.3154,N,12201.9269,W,0.08,328.85,250713,,,D*77
$PGTOP,11,2*6E
$GPGGA,032524.000,3717.3154,N,12201.9269,W,2,8,0.87,88.8,M,-25.9,M,0000,0000*56
$GPRMC,032524.000,A,3717.3154,N,12201.9269,W,0.08,328.85,250713,,,D*70
$PGTOP,11,2*6E
$GPGGA,032525.000,3717.3154,N,12201.9268,W,2,8,0.86,88.8,M,-25.9,M,0000,0000*57
$GPRMC,032525.000,A,3717.3154,N,12201.9268,W,0.05,328.85,250713,,,D*7D
$PGTOP,11,2*6E
$GPGGA,032526.000,3717.3154,N,12201.9268,W,2,8,0.86,88.8,M,-25.9,M,0000,0000*54
$GPRMC,032526.000,A,3717.3154,N,12201.9268,W,0.11,328.85,250713,,,D*7B
$PGTOP,11,2*6E
$GPGGA,032527.000,3717.3155,N,12201.9268,W,2,8,0.87,88.8,M,-25.9,M,0000,0000*55
$GPRMC,032527.000,A,3717.3155,N,12201.9268,W,0.07,328.85,250713,,,D*7C
$PGTOP,11,2*6E
$GPGGA,032528.000,3717.3155,N,12201.9268,W,2,8,0.87,88.8,M,-25.9,M,0000,0000*5A
$GPRMC,032528.000,A,3717.3155,N,12201.9268,W,0.17,328.85,250713,,,D*72
$PGTOP,11,2*6E
$GPGGA,032529.000,3717.3155,N,12201.9268,W,2,8,0.86,88.8,M,-25.9,M,0000,0000*5A
$GPRMC,032529.000,A,3717.3155,N,12201.9268,W,0.16,328.85,250713,,,D*72
$PGTOP,11,2*6E
$GPGGA,032530.000,3717.3155,N,12201.9267,W,2,8,0.86,88.8,M,-25.9,M,0000,0000*5D
$GPRMC,032530.000,A,3717.3155,N,12201.9267,W,0.08,328.85,250713,,,D*7A
$PGTOP,11,2*6E
$GPGGA,032531.000,3717.3155,N,12201.9267,W,2,8,0.86,88.8,M,-25.9,M,0000,0000*5C
$GPRMC,032531.000,A,3717.3155,N,12201.9267,W,0.11,328.85,250713,,,D*73
$PGTOP,11,2*6E
$GPGGA,032532.000,3717.3156,N,12201.9267,W,2,8,0.86,88.8,M,-25.9,M,0000,0000*5C
$GPRMC,032532.000,A,3717.3156,N,12201.9267,W,0.14,328.85,250713,,,D*76
$PGTOP,11,2*6E
$GPGGA,032533.000,3717.3155,N,12201.9266,W,2,8,0.86,88.8,M,-25.9,M,0000,0000*5F
$GPRMC,032533.000,A,3717.3155,N,12201.9266,W,0.22,328.85,250713,,,D*70
$PGTOP,11,2*6E
$GPGGA,032534.000,3717.3155,N,12201.9265,W,2,8,0.86,88.8,M,-25.9,M,0000,0000*5B
$GPRMC,032534.000,A,3717.3155,N,12201.9265,W,0.28,328.85,250713,,,D*7E
$PGTOP,11,2*6E
$GPGGA,032535.000,3717.3155,N,12201.9265,W,2,8,0.86,88.8,M,-25.9,M,0000,0000*5A
$GPRMC,032535.000,A,3717.3155,N,12201.9265,W,0.22,328.85,250713,,,D*75
$PGTOP,11,2*6E
$GPGGA,032536.000,3717.3154,N,12201.9264,W,2,8,0.86,88.8,M,-25.9,M,0000,0000*59
$GPRMC,032536.000,A,3717.3154,N,12201.9264,W,0.15,328.85,250713,,,D*72
$PGTOP,11,2*6E
$GPGGA,032537.000,3717.3154,N,12201.9263,W,2,8,0.86,88.8,M,-25.9,M,0000,0000*5F
$GPRMC,032537.000,A,3717.3154,N,12201.9263,W,0.12,328.85,250713,,,D*73
$PGTOP,11,2*6E
$GPGGA,032538.000,3717.3154,N,12201.9263,W,2,8,0.86,88.8,M,-25.9,M,0000,0000*50
$GPRMC,032538.000,A,3717.3154,N,12201.9263,W,0.06,328.85,250713,,,D*79
$PGTOP,11,2*6E
$GPGGA,032539.000,3717.3153,N,12201.9263,W,2,8,0.86,88.8,M,-25.9,M,0000,0000*56
$GPRMC,032539.000,A,3717.3153,N,12201.9263,W,0.09,328.85,250713,,,D*70
$PGTOP,11,2*6E
$GPGGA,032540.000,3717.3153,N,12201.9263,W,2,8,0.86,88.8,M,-25.9,M,0000,0000*58
$GPRMC,032540.000,A,3717.3153,N,12201.9263,W,0.16,328.85,250713,,,D*70
$PGTOP,11,2*6E
$GPGGA,032541.000,3717.3154,N,12201.9262,W,2,8,0.86,88.8,M,-25.9,M,0000,0000*5F
$GPRMC,032541.000,A,3717.3154,N,12201.9262,W,0.20,328.85,250713,,,D*72
$PGTOP,11,2*6E
$GPGGA,032542.000,3717.3154,N,12201.9262,W,2,8,0.86,88.8,M,-25.9,M,0000,0000*5C
$GPRMC,032542.000,A,3717.3154,N,12201.9262,W,0.21,328.85,250713,,,D*70
$PGTOP,11,2*6E
$GPGGA,032543.000,3717.3154,N,12201.9261,W,2,8,0.86,88.8,M,-25.9,M,0000,0000*5E
$GPRMC,032543.000,A,3717.3154,N,12201.9261,W,0.19,328.85,250713,,,D*79
$PGTOP,11,2*6E
$GPGGA,032544.000,3717.3154,N,12201.9260,W,2,8,0.86,88.9,M,-25.9,M,0000,0000*59
$GPRMC,032544.000,A,3717.3154,N,12201.9260,W,0.24,328.85,250713,,,D*71
$PGTOP,11,2*6E
$GPGGA,032545.000,3717.3154,N,12201.9259,W,2,8,0.86,88.9,M,-25.9,M,0000,0000*52
$GPRMC,032545.000,A,3717.3154,N,12201.9259,W,0.07,328.85,250713,,,D*7B
$PGTOP,11,2*6E
$GPGGA,032546.000,3717.3154,N,12201.9259,W,2,8,0.86,88.9,M,-25.9,M,0000,0000*51
$GPRMC,032546.000,A,3717.3154,N,12201.9259,W,0.20,328.85,250713,,,D*7D
$PGTOP,11,2*6E
$GPGGA,032547.000,3717.3154,N,12201.9258,W,2,8,0.86,88.9,M,-25.9,M,0000,0000*51
$GPRMC,032547.000,A,3717.3154,N,12201.9258,W,0.21,328.85,250713,,,D*7C
$PGTOP,11,2*6E
$GPGGA,032548.000,3717.3154,N,12201.9258,W,2,8,0.86,88.9,M,-25.9,M,0000,0000*5E
$GPRMC,032548.000,A,3717.3154,N,12201.9258,W,0.19,328.85,250713,,,D*78
$PGTOP,11,2*6E
$GPGGA,032549.000,3717.3154,N,12201.9257,W,2,8,0.86,88.9,M,-25.9,M,0000,0000*50
$GPRMC,032549.000,A,3717.3154,N,12201.9257,W,0.05,328.85,250713,,,D*7B
$PGTOP,11,2*6E
$GPGGA,032550.000,3717.3154,N,12201.9257,W,2,8,0.86,88.9,M,-25.9,M,0000,0000*58
$GPRMC,032550.000,A,3717.3154,N,12201.9257,W,0.03,328.85,250713,,,D*75
$PGTOP,11,2*6E
$GPGGA,032551.000,3717.3154,N,12201.9257,W,2,8,0.86,88.9,M,-25.9,M,0000,0000*59
$GPRMC,032551.000,A,3717.3154,N,12201.9257,W,0.07,328.85,250713,,,D*70
$PGTOP,11,2*6E
$GPGGA,032552.000,3717.3154,N,12201.9257,W,2,8,0.86,88.9,M,-25.9,M,0000,0000*5A
$GPRMC,032552.000,A,3717.3154,N,12201.9257,W,0.05,328.85,250713,,,D*71
$PGTOP,11,2*6E
$GPGGA,032553.000,3717.3154,N,12201.9257,W,2,8,0.86,88.9,M,-25.9,M,0000,0000*5B
$GPRMC,032553.000,A,3717.3154,N,12201.9257,W,0.15,328.85,250713,,,D*71
$PGTOP,11,2*6E
$GPGGA,032554.000,3717.3154,N,12201.9257,W,2,8,0.86,88.9,M,-25.9,M,0000,0000*5C
$GPRMC,032554.000,A,3717.3154,N,12201.9257,W,0.12,328.85,250713,,,D*71
$PGTOP,11,2*6E
$GPGGA,032555.000,3717.3154,N,12201.9258,W,2,8,0.86,88.9,M,-25.9,M,0000,0000*52
$GPRMC,032555.000,A,3717.3154,N,12201.9258,W,0.12,328.85,250713,,,D*7F
$PGTOP,11,2*6E
$GPGGA,032556.000,3717.3154,N,12201.9258,W,2,8,0.86,88.9,M,-25.9,M,0000,0000*51
$GPRMC,032556.000,A,3717.3154,N,12201.9258,W,0.15,328.85,250713,,,D*7B
$PGTOP,11,2*6E
$GPGGA,032557.000,3717.3153,N,12201.9258,W,2,8,0.86,88.9,M,-25.9,M,0000,0000*57
$GPRMC,032557.000,A,3717.3153,N,12201.9258,W,0.19,328.85,250713,,,D*71
$PGTOP,11,2*6E
$GPGGA,032558.000,3717.3153,N,12201.9259,W,2,8,0.86,89.0,M,-25.9,M,0000,0000*51
$GPRMC,032558.000,A,3717.3153,N,12201.9259,W,0.07,328.85,250713,,,D*70
$PGTOP,11,2*6E
$GPGGA,032559.000,3717.3153,N,12201.9259,W,2,8,0.86,89.0,M,-25.9,M,0000,0000*50
$GPRMC,032559.000,A,3717.3153,N,12201.9259,W,0.02,328.85,250713,,,D*74
$PGTOP,11,2*6E
$GPGGA,032600.000,3717.3153,N,12201.9259,W,2,8,0.86,89.0,M,-25.9,M,0000,0000*5F
$GPRMC,032600.000,A,3717.3153,N,12201.9259,W,0.13,328.85,250713,,,D*7B
$PGTOP,11,2*6E
$GPGGA,032601.000,3717.3153,N,12201.9258,W,2,8,0.86,89.0,M,-25.9,M,0000,0000*5F
$GPRMC,032601.000,A,3717.3153,N,12201.9258,W,0.21,328.85,250713,,,D*7A
$PGTOP,11,2*6E
$GPGGA,032602.000,3717.3153,N,12201.9258,W,2,8,0.86,89.0,M,-25.9,M,0000,0000*5C
$GPRMC,032602.000,A,3717.3153,N,12201.9258,W,0.22,328.85,250713,,,D*7A
$PGTOP,11,2*6E
$GPGGA,032603.000,3717.3154,N,12201.9257,W,2,8,0.86,89.0,M,-25.9,M,0000,0000*55
$GPRMC,032603.000,A,3717.3154,N,12201.9257,W,0.12,328.85,250713,,,D*70
$PGTOP,11,2*6E
$GPGGA,032604.000,3717.3154,N,12201.9257,W,2,8,0.86,89.0,M,-25.9,M,0000,0000*52
$GPRMC,032604.000,A,3717.3154,N,12201.9257,W,0.12,328.85,250713,,,D*77
$PGTOP,11,2*6E
$GPGGA,032605.000,3717.3154,N,12201.9257,W,2,8,0.86,89.0,M,-25.9,M,0000,0000*53
$GPRMC,032605.000,A,3717.3154,N,12201.9257,W,0.08,328.85,250713,,,D*7D
$PGTOP,11,2*6E
$GPGGA,032606.000,3717.3154,N,12201.9257,W,2,8,0.86,89.0,M,-25.9,M,0000,0000*50
$GPRMC,032606.000,A,3717.3154,N,12201.9257,W,0.25,328.85,250713,,,D*71
$PGTOP,11,2*6E
$GPGGA,032607.000,3717.3155,N,12201.9258,W,2,8,0.86,89.0,M,-25.9,M,0000,0000*5F
$GPRMC,032607.000,A,3717.3155,N,12201.9258,W,0.24,328.85,250713,,,D*7F
$PGTOP,11,2*6E
$GPGGA,032608.000,3717.3156,N,12201.9258,W,2,8,0.87,89.0,M,-25.9,M,0000,0000*52
$GPRMC,032608.000,A,3717.3156,N,12201.9258,W,0.20,328.85,250713,,,D*77
$PGTOP,11,2*6E
$GPGGA,032609.000,3717.3156,N,12201.9257,W,2,8,0.87,89.0,M,-25.9,M,0000,0000*5C
$GPRMC,032609.000,A,3717.3156,N,12201.9257,W,0.19,328.85,250713,,,D*73
$PGTOP,11,2*6E
$GPGGA,032610.000,3717.3157,N,12201.9257,W,2,8,0.86,89.0,M,-25.9,M,0000,0000*54
$GPRMC,032610.000,A,3717.3157,N,12201.9257,W,0.30,328.85,250713,,,D*71
$PGTOP,11,2*6E
$GPGGA,032611.000,3717.3158,N,12201.9257,W,2,8,0.87,89.0,M,-25.9,M,0000,0000*5B
$GPRMC,032611.000,A,3717.3158,N,12201.9257,W,0.33,328.85,250713,,,D*7C
$PGTOP,11,2*6E
$GPGGA,032612.000,3717.3159,N,12201.9257,W,2,8,0.87,89.0,M,-25.9,M,0000,0000*59
$GPRMC,032612.000,A,3717.3159,N,12201.9257,W,0.28,328.85,250713,,,D*74
$PGTOP,11,2*6E
$GPGGA,032613.000,3717.3159,N,12201.9256,W,2,8,0.87,89.0,M,-25.9,M,0000,0000*59
$GPRMC,032613.000,A,3717.3159,N,12201.9256,W,0.19,328.85,250713,,,D*76
$PGTOP,11,2*6E
$GPGGA,032614.000,3717.3160,N,12201.9256,W,2,8,0.86,89.0,M,-25.9,M,0000,0000*55
$GPRMC,032614.000,A,3717.3160,N,12201.9256,W,0.25,328.85,250713,,,D*74
$PGTOP,11,2*6E
$GPGGA,032615.000,3717.3160,N,12201.9256,W,2,8,0.86,89.0,M,-25.9,M,0000,0000*54
$GPRMC,032615.000,A,3717.3160,N,12201.9256,W,0.20,328.85,250713,,,D*70
$PGTOP,11,2*6E
$GPGGA,032616.000,3717.3161,N,12201.9255,W,2,8,0.86,89.0,M,-25.9,M,0000,0000*55
$GPRMC,032616.000,A,3717.3161,N,12201.9255,W,0.10,328.85,250713,,,D*72
$PGTOP,11,2*6E
$GPGGA,032617.000,3717.3161,N,12201.9255,W,2,8,0.86,89.0,M,-25.9,M,0000,0000*54
$GPRMC,032617.000,A,3717.3161,N,12201.9255,W,0.10,328.85,250713,,,D*73
$PGTOP,11,2*6E
$GPGGA,032618.000,3717.3161,N,12201.9255,W,2,8,0.86,89.0,M,-25.9,M,0000,0000*5B
$GPRMC,032618.000,A,3717.3161,N,12201.9255,W,0.05,328.85,250713,,,D*78
$PGTOP,11,2*6E
$GPGGA,032619.000,3717.3161,N,12201.9255,W,2,8,0.86,89.0,M,-25.9,M,0000,0000*5A
$GPRMC,032619.000,A,3717.3161,N,12201.9255,W,0.14,328.85,250713,,,D*79
$PGTOP,11,2*6E
$GPGGA,032620.000,3717.3162,N,12201.9254,W,2,8,0.86,89.0,M,-25.9,M,0000,0000*52
$GPRMC,032620.000,A,3717.3162,N,12201.9254,W,0.25,328.85,250713,,,D*73
$PGTOP,11,2*6E
$GPGGA,032621.000,3717.3162,N,12201.9254,W,2,8,0.86,89.0,M,-25.9,M,0000,0000*53
$GPRMC,032621.000,A,3717.3162,N,12201.9254,W,0.13,328.85,250713,,,D*77
$PGTOP,11,2*6E
$GPGGA,032622.000,3717.3163,N,12201.9254,W,2,8,0.87,89.0,M,-25.9,M,0000,0000*50
$GPRMC,032622.000,A,3717.3163,N,12201.9254,W,0.06,328.85,250713,,,D*71
$PGTOP,11,2*6E
$GPGGA,032623.000,3717.3163,N,12201.9254,W,2,8,0.87,89.0,M,-25.9,M,0000,0000*51
$GPRMC,032623.000,A,3717.3163,N,12201.9254,W,0.04,328.85,250713,,,D*72
$PGTOP,11,2*6E
$GPGGA,032624.000,3717.3163,N,12201.9254,W,2,8,0.86,89.0,M,-25.9,M,0000,0000*57
$GPRMC,032624.000,A,3717.3163,N,12201.9254,W,0.11,328.85,250713,,,D*71
$PGTOP,11,2*6E
$GPGGA,032625.000,3717.3163,N,12201.9254,W,2,8,0.86,89.0,M,-25.9,M,0000,0000*56
$GPRMC,032625.000,A,3717.3163,N,12201.9254,W,0.13,328.85,250713,,,D*72
$PGTOP,11,2*6E
$GPGGA,032626.000,3717.3164,N,12201.9254,W,2,8,0.87,89.0,M,-25.9,M,0000,0000*53
$GPRMC,032626.000,A,3717.3164,N,12201.9254,W,0.18,328.85,250713,,,D*7D
$PGTOP,11,2*6E
$GPGGA,032627.000,3717.3164,N,12201.9254,W,2,8,0.87,89.0,M,-25.9,M,0000,0000*52
$GPRMC,032627.000,A,3717.3164,N,12201.9254,W,0.18,328.85,250713,,,D*7C
$PGTOP,11,2*6E
$GPGGA,032628.000,3717.3165,N,12201.9255,W,2,8,0.86,89.1,M,-25.9,M,0000,0000*5D
$GPRMC,032628.000,A,3717.3165,N,12201.9255,W,0.11,328.85,250713,,,D*7A
$PGTOP,11,2*6E
$GPGGA,032629.000,3717.3165,N,12201.9255,W,2,8,0.87,89.1,M,-25.9,M,0000,0000*5D
$GPRMC,032629.000,A,3717.3165,N,12201.9255,W,0.06,328.85,250713,,,D*7D
$PGTOP,11,2*6E
$GPGGA,032630.000,3717.3165,N,12201.9255,W,2,8,0.86,89.1,M,-25.9,M,0000,0000*54
$GPRMC,032630.000,A,3717.3165,N,12201.9255,W,0.13,328.85,250713,,,D*71
$PGTOP,11,2*6E
$GPGGA,032631.000,3717.3165,N,12201.9255,W,2,8,0.86,89.1,M,-25.9,M,0000,0000*55
$GPRMC,032631.000,A,3717.3165,N,12201.9255,W,0.02,328.85,250713,,,D*70
$PGTOP,11,2*6E
$GPGGA,032632.000,3717.3165,N,12201.9255,W,2,8,0.86,89.1,M,-25.9,M,0000,0000*56
$GPRMC,032632.000,A,3717.3165,N,12201.9255,W,0.04,328.85,250713,,,D*75
$PGTOP,11,2*6E
$GPGGA,032633.000,3717.3165,N,12201.9255,W,2,8,0.86,89.1,M,-25.9,M,0000,0000*57
$GPRMC,032633.000,A,3717.3165,N,12201.9255,W,0.09,328.85,250713,,,D*79
$PGTOP,11,2*6E
$GPGGA,032634.000,3717.3165,N,12201.9255,W,2,8,0.87,89.1,M,-25.9,M,0000,0000*51
$GPRMC,032634.000,A,3717.3165,N,12201.9255,W,0.17,328.85,250713,,,D*71
$PGTOP,11,2*6E
$GPGGA,032635.000,3717.3166,N,12201.9255,W,2,8,0.86,89.1,M,-25.9,M,0000,0000*52
$GPRMC,032635.000,A,3717.3166,N,12201.9255,W,0.11,328.85,250713,,,D*75
$PGTOP,11,2*6E
$GPGGA,032636.000,3717.3166,N,12201.9255,W,2,8,0.86,89.1,M,-25.9,M,0000,0000*51
$GPRMC,032636.000,A,3717.3166,N,12201.9255,W,0.17,328.85,250713,,,D*70
$PGTOP,11,2*6E
$GPGGA,032637.000,3717.3166,N,12201.9254,W,2,8,0.86,89.1,M,-25.9,M,0000,0000*51
$GPRMC,032637.000,A,3717.3166,N,12201.9254,W,0.17,328.85,250713,,,D*70
$PGTOP,11,2*6E
$GPGGA,032638.000,3717.3166,N,12201.9254,W,2,8,0.86,89.1,M,-25.9,M,0000,0000*5E
$GPRMC,032638.000,A,3717.3166,N,12201.9254,W,0.10,328.85,250713,,,D*78
$PGTOP,11,2*6E
$GPGGA,032639.000,3717.3166,N,12201.9253,W,2,8,0.86,89.1,M,-25.9,M,0000,0000*58
$GPRMC,032639.000,A,3717.3166,N,12201.9253,W,0.06,328.85,250713,,,D*79
$PGTOP,11,2*6E
$GPGGA,032640.000,3717.3166,N,12201.9253,W,2,8,0.86,89.1,M,-25.9,M,0000,0000*56
$GPRMC,032640.000,A,3717.3166,N,12201.9253,W,0.15,328.85,250713,,,D*75
$PGTOP,11,2*6E
$GPGGA,032641.000,3717.3165,N,12201.9253,W,2,8,0.86,89.1,M,-25.9,M,0000,0000*54
$GPRMC,032641.000,A,3717.3165,N,12201.9253,W,0.15,328.85,250713,,,D*77
$PGTOP,11,2*6E
$GPGGA,032642.000,3717.3165,N,12201.9253,W,2,8,0.86,89.1,M,-25.9,M,0000,0000*57
$GPRMC,032642.000,A,3717.3165,N,12201.9253,W,0.18,328.85,250713,,,D*79
$PGTOP,11,2*6E
$GPGGA,032643.000,3717.3165,N,12201.9252,W,2,8,0.86,89.1,M,-25.9,M,0000,0000*57
$GPRMC,032643.000,A,3717.3165,N,12201.9252,W,0.18,328.85,250713,,,D*79
$PGTOP,11,2*6E
$GPGGA,032644.000,3717.3164,N,12201.9252,W,2,8,0.86,89.1,M,-25.9,M,0000,0000*51
$GPRMC,032644.000,A,3717.3164,N,12201.9252,W,0.13,328.85,250713,,,D*74
$PGTOP,11,2*6E
$GPGGA,032645.000,3717.3164,N,12201.9251,W,2,8,0.86,89.1,M,-25.9,M,0000,0000*53
$GPRMC,032645.000,A,3717.3164,N,12201.9251,W,0.10,328.85,250713,,,D*75
$PGTOP,11,2*6E
$GPGGA,032646.000,3717.3164,N,12201.9251,W,2,8,0.86,89.1,M,-25.9,M,0000,0000*50
$GPRMC,032646.000,A,3717.3164,N,12201.9251,W,0.12,328.85,250713,,,D*74
$PGTOP,11,2*6E
$GPGGA,032647.000,3717.3164,N,12201.9250,W,2,8,0.86,89.1,M,-25.9,M,0000,0000*50
$GPRMC,032647.000,A,3717.3164,N,12201.9250,W,0.13,328.85,250713,,,D*75
$PGTOP,11,2*6E
$GPGGA,032648.000,3717.3164,N,12201.9250,W,2,8,0.86,89.1,M,-25.9,M,0000,0000*5F
$GPRMC,032648.000,A,3717.3164,N,12201.9250,W,0.14,328.85,250713,,,D*7D
$PGTOP,11,2*6E
$GPGGA,032649.000,3717.3164,N,12201.9250,W,2,8,0.86,89.1,M,-25.9,M,0000,0000*5E
$GPRMC,032649.000,A,3717.3164,N,12201.9250,W,0.15,328.85,250713,,,D*7D
$PGTOP,11,2*6E
$GPGGA,032650.000,3717.3164,N,12201.9249,W,2,8,0.86,89.1,M,-25.9,M,0000,0000*5E
$GPRMC,032650.000,A,3717.3164,N,12201.9249,W,0.01,328.85,250713,,,D*78
$PGTOP,11,2*6E
$GPGGA,032651.000,3717.3164,N,12201.9249,W,2,8,0.86,89.1,M,-25.9,M,0000,0000*5F
$GPRMC,032651.000,A,3717.3164,N,12201.9249,W,0.09,328.85,250713,,,D*71
$PGTOP,11,2*6E
$GPGGA,032652.000,3717.3164,N,12201.9249,W,2,8,0.86,89.1,M,-25.9,M,0000,0000*5C
$GPRMC,032652.000,A,3717.3164,N,12201.9249,W,0.09,328.85,250713,,,D*72
$PGTOP,11,2*6E
$GPGGA,032653.000,3717.3164,N,12201.9249,W,2,8,0.86,89.2,M,-25.9,M,0000,0000*5E
$GPRMC,032653.000,A,3717.3164,N,12201.9249,W,0.16,328.85,250713,,,D*7D
$PGTOP,11,2*6E
$GPGGA,032654.000,3717.3164,N,12201.9248,W,2,8,0.86,89.2,M,-25.9,M,0000,0000*58
$GPRMC,032654.000,A,3717.3164,N,12201.9248,W,0.19,328.85,250713,,,D*74
$PGTOP,11,2*6E
$GPGGA,032655.000,3717.3165,N,12201.9248,W,2,8,0.87,89.2,M,-25.9,M,0000,0000*59
$GPRMC,032655.000,A,3717.3165,N,12201.9248,W,0.08,328.85,250713,,,D*74
$PGTOP,11,2*6E
$GPGGA,032656.000,3717.3165,N,12201.9248,W,2,8,0.87,89.2,M,-25.9,M,0000,0000*5A
$GPRMC,032656.000,A,3717.3165,N,12201.9248,W,0.05,328.85,250713,,,D*7A
$PGTOP,11,2*6E
$GPGGA,032657.000,3717.3165,N,12201.9249,W,2,8,0.86,89.2,M,-25.9,M,0000,0000*5B
$GPRMC,032657.000,A,3717.3165,N,12201.9249,W,0.05,328.85,250713,,,D*7A
$PGTOP,11,2*6E
$GPGGA,032658.000,3717.3165,N,12201.9249,W,2,8,0.86,89.2,M,-25.9,M,0000,0000*54
$GPRMC,032658.000,A,3717.3165,N,12201.9249,W,0.05,328.85,250713,,,D*75
$PGTOP,11,2*6E
$GPGGA,032659.000,3717.3165,N,12201.9249,W,2,8,0.86,89.2,M,-25.9,M,0000,0000*55
$GPRMC,032659.000,A,3717.3165,N,12201.9249,W,0.06,328.85,250713,,,D*77
$PGTOP,11,2*6E
$GPGGA,032700.000,3717.3165,N,12201.9249,W,2,8,0.86,89.2,M,-25.9,M,0000,0000*58
$GPRMC,032700.000,A,3717.3165,N,12201.9249,W,0.07,328.85,250713,,,D*7B
$PGTOP,11,2*6E
$GPGGA,032701.000,3717.3164,N,12201.9249,W,2,8,0.86,89.2,M,-25.9,M,0000,0000*58
$GPRMC,032701.000,A,3717.3164,N,12201.9249,W,0.16,328.85,250713,,,D*7B
$PGTOP,11,2*6E
$GPGGA,032702.000,3717.3164,N,12201.9249,W,2,8,0.86,89.2,M,-25.9,M,0000,0000*5B
$GPRMC,032702.000,A,3717.3164,N,12201.9249,W,0.20,328.85,250713,,,D*7D
$PGTOP,11,2*6E
$GPGGA,032703.000,3717.3164,N,12201.9250,W,2,8,0.86,89.2,M,-25.9,M,0000,0000*52
$GPRMC,032703.000,A,3717.3164,N,12201.9250,W,0.17,328.85,250713,,,D*70
$PGTOP,11,2*6E
$GPGGA,032704.000,3717.3163,N,12201.9250,W,2,8,0.86,89.2,M,-25.9,M,0000,0000*52
$GPRMC,032704.000,A,3717.3163,N,12201.9250,W,0.24,328.85,250713,,,D*70
$PGTOP,11,2*6E
$GPGGA,032705.000,3717.3163,N,12201.9251,W,2,8,0.86,89.2,M,-25.9,M,0000,0000*52
$GPRMC,032705.000,A,3717.3163,N,12201.9251,W,0.09,328.85,250713,,,D*7F
$PGTOP,11,2*6E
$GPGGA,032706.000,3717.3163,N,12201.9251,W,2,8,0.86,89.2,M,-25.9,M,0000,0000*51
$GPRMC,032706.000,A,3717.3163,N,12201.9251,W,0.14,328.85,250713,,,D*70
$PGTOP,11,2*6E
$GPGGA,032707.000,3717.3163,N,12201.9251,W,2,8,0.86,89.2,M,-25.9,M,0000,0000*50
$GPRMC,032707.000,A,3717.3163,N,12201.9251,W,0.16,328.85,250713,,,D*73
$PGTOP,11,2*6E
$GPGGA,032708.000,3717.3162,N,12201.9252,W,2,8,0.86,89.2,M,-25.9,M,0000,0000*5D
$GPRMC,032708.000,A,3717.3162,N,12201.9252,W,0.17,328.85,250713,,,D*7F
$PGTOP,11,2*6E
$GPGGA,032709.000,3717.3162,N,12201.9252,W,2,8,0.86,89.2,M,-25.9,M,0000,0000*5C
$GPRMC,032709.000,A,3717.3162,N,12201.9252,W,0.18,328.85,250713,,,D*71
$PGTOP,11,2*6E
$GPGGA,032710.000,3717.3161,N,12201.9251,W,2,8,0.86,89.2,M,-25.9,M,0000,0000*54
$GPRMC,032710.000,A,3717.3161,N,12201.9251,W,0.27,328.85,250713,,,D*75
$PGTOP,11,2*6E
$GPGGA,032711.000,3717.3161,N,12201.9251,W,2,8,0.86,89.2,M,-25.9,M,0000,0000*55
$GPRMC,032711.000,A,3717.3161,N,12201.9251,W,0.22,328.85,250713,,,D*71
$PGTOP,11,2*6E
$GPGGA,032712.000,3717.3160,N,12201.9251,W,2,8,0.86,89.3,M,-25.9,M,0000,0000*56
$GPRMC,032712.000,A,3717.3160,N,12201.9251,W,0.23,328.85,250713,,,D*72
$PGTOP,11,2*6E
$GPGGA,032713.000,3717.3159,N,12201.9251,W,2,8,0.86,89.3,M,-25.9,M,0000,0000*5D
$GPRMC,032713.000,A,3717.3159,N,12201.9251,W,0.28,328.85,250713,,,D*72
$PGTOP,11,2*6E
$GPGGA,032714.000,3717.3159,N,12201.9251,W,2,8,0.86,89.3,M,-25.9,M,0000,0000*5A
$GPRMC,032714.000,A,3717.3159,N,12201.9251,W,0.24,328.85,250713,,,D*79
$PGTOP,11,2*6E
$GPGGA,032715.000,3717.3158,N,12201.9251,W,2,8,0.86,89.3,M,-25.9,M,0000,0000*5A
$GPRMC,032715.000,A,3717.3158,N,12201.9251,W,0.11,328.85,250713,,,D*7F
$PGTOP,11,2*6E
$GPGGA,032716.000,3717.3158,N,12201.9251,W,2,8,0.86,89.3,M,-25.9,M,0000,0000*59
$GPRMC,032716.000,A,3717.3158,N,12201.9251,W,0.08,328.85,250713,,,D*74
$PGTOP,11,2*6E
$GPGGA,032717.000,3717.3157,N,12201.9251,W,2,8,0.86,89.3,M,-25.9,M,0000,0000*57
$GPRMC,032717.000,A,3717.3157,N,12201.9251,W,0.17,328.85,250713,,,D*74
$PGTOP,11,2*6E
$GPGGA,032718.000,3717.3157,N,12201.9251,W,2,8,0.86,89.3,M,-25.9,M,0000,0000*58
$GPRMC,032718.000,A,3717.3157,N,12201.9251,W,0.10,328.85,250713,,,D*7C
$PGTOP,11,2*6E
$GPGGA,032719.000,3717.3157,N,12201.9252,W,2,8,0.86,89.3,M,-25.9,M,0000,0000*5A
$GPRMC,032719.000,A,3717.3157,N,12201.9252,W,0.13,328.85,250713,,,D*7D
$PGTOP,11,2*6E
$GPGGA,032720.000,3717.3157,N,12201.9252,W,2,8,0.86,89.2,M,-25.9,M,0000,0000*51
$GPRMC,032720.000,A,3717.3157,N,12201.9252,W,0.04,328.85,250713,,,D*71
$PGTOP,11,2*6E
$GPGGA,032721.000,3717.3157,N,12201.9252,W,2,8,0.86,89.2,M,-25.9,M,0000,0000*50
$GPRMC,032721.000,A,3717.3157,N,12201.9252,W,0.12,328.85,250713,,,D*77
$PGTOP,11,2*6E
$GPGGA,032722.000,3717.3157,N,12201.9253,W,2,8,0.86,89.2,M,-25.9,M,0000,0000*52
$GPRMC,032722.000,A,3717.3157,N,12201.9253,W,0.06,328.85,250713,,,D*70
$PGTOP,11,2*6E
$GPGGA,032723.000,3717.3156,N,12201.9253,W,2,8,0.86,89.3,M,-25.9,M,0000,0000*53
$GPRMC,032723.000,A,3717.3156,N,12201.9253,W,0.05,328.85,250713,,,D*73
$PGTOP,11,2*6E
$GPGGA,032724.000,3717.3157,N,12201.9253,W,2,8,0.86,89.3,M,-25.9,M,0000,0000*55
$GPRMC,032724.000,A,3717.3157,N,12201.9253,W,0.12,328.85,250713,,,D*73
$PGTOP,11,2*6E
$GPGGA,032725.000,3717.3157,N,12201.9252,W,2,8,0.86,89.3,M,-25.9,M,0000,0000*55
$GPRMC,032725.000,A,3717.3157,N,12201.9252,W,0.12,328.85,250713,,,D*73
$PGTOP,11,2*6E
$GPGGA,032726.000,3717.3157,N,12201.9252,W,2,8,0.86,89.3,M,-25.9,M,0000,0000*56
$GPRMC,032726.000,A,3717.3157,N,12201.9252,W,0.13,328.85,250713,,,D*71
$PGTOP,11,2*6E
$GPGGA,032727.000,3717.3157,N,12201.9252,W,2,8,0.86,89.3,M,-25.9,M,0000,0000*57
$GPRMC,032727.000,A,3717.3157,N,12201.9252,W,0.07,328.85,250713,,,D*75
$PGTOP,11,2*6E
$GPGGA,032728.000,3717.3158,N,12201.9252,W,2,8,0.86,89.3,M,-25.9,M,0000,0000*57
$GPRMC,032728.000,A,3717.3158,N,12201.9252,W,0.04,328.85,250713,,,D*76
$PGTOP,11,2*6E
$GPGGA,032729.000,3717.3157,N,12201.9252,W,2,8,0.86,89.3,M,-25.9,M,0000,0000*59
$GPRMC,032729.000,A,3717.3157,N,12201.9252,W,0.08,328.85,250713,,,D*74
$PGTOP,11,2*6E
$GPGGA,032730.000,3717.3157,N,12201.9252,W,2,8,0.86,89.3,M,-25.9,M,0000,0000*51
$GPRMC,032730.000,A,3717.3157,N,12201.9252,W,0.17,328.85,250713,,,D*72
$PGTOP,11,2*6E
$GPGGA,032731.000,3717.3157,N,12201.9252,W,2,8,0.86,89.3,M,-25.9,M,0000,0000*50
$GPRMC,032731.000,A,3717.3157,N,12201.9252,W,0.20,328.85,250713,,,D*77
$PGTOP,11,2*6E
$GPGGA,032732.000,3717.3156,N,12201.9252,W,2,8,0.86,89.3,M,-25.9,M,0000,0000*52
$GPRMC,032732.000,A,3717.3156,N,12201.9252,W,0.31,328.85,250713,,,D*75
$PGTOP,11,2*6E
$GPGGA,032733.000,3717.3155,N,12201.9251,W,2,8,0.86,89.3,M,-25.9,M,0000,0000*53
$GPRMC,032733.000,A,3717.3155,N,12201.9251,W,0.33,328.85,250713,,,D*76
$PGTOP,11,2*6E
$GPGGA,032734.000,3717.3155,N,12201.9251,W,2,8,0.86,89.3,M,-25.9,M,0000,0000*54
$GPRMC,032734.000,A,3717.3155,N,12201.9251,W,0.26,328.85,250713,,,D*75
$PGTOP,11,2*6E
$GPGGA,032735.000,3717.3154,N,12201.9250,W,2,7,0.94,89.3,M,-25.9,M,0000,0000*59
$GPRMC,032735.000,A,3717.3154,N,12201.9250,W,0.27,328.85,250713,,,D*75
$PGTOP,11,2*6E
$GPGGA,032736.000,3717.3154,N,12201.9249,W,2,8,0.86,89.3,M,-25.9,M,0000,0000*5E
$GPRMC,032736.000,A,3717.3154,N,12201.9249,W,0.27,328.85,250713,,,D*7E
$PGTOP,11,2*6E
$GPGGA,032737.000,3717.3153,N,12201.9249,W,2,8,0.86,89.3,M,-25.9,M,0000,0000*58
$GPRMC,032737.000,A,3717.3153,N,12201.9249,W,0.26,328.85,250713,,,D*79
$PGTOP,11,2*6E
$GPGGA,032738.000,3717.3152,N,12201.9249,W,2,8,0.86,89.3,M,-25.9,M,0000,0000*56
$GPRMC,032738.000,A,3717.3152,N,12201.9249,W,0.26,328.85,250713,,,D*77
$PGTOP,11,2*6E
$GPGGA,032739.000,3717.3152,N,12201.9250,W,2,8,0.86,89.3,M,-25.9,M,0000,0000*5F
$GPRMC,032739.000,A,3717.3152,N,12201.9250,W,0.16,328.85,250713,,,D*7D
$PGTOP,11,2*6E
$GPGGA,032740.000,3717.3152,N,12201.9250,W,2,8,0.86,89.3,M,-25.9,M,0000,0000*51
$GPRMC,032740.000,A,3717.3152,N,12201.9250,W,0.18,328.85,250713,,,D*7D
$PGTOP,11,2*6E
$GPGGA,032741.000,3717.3152,N,12201.9251,W,2,8,0.86,89.3,M,-25.9,M,0000,0000*51
$GPRMC,032741.000,A,3717.3152,N,12201.9251,W,0.25,328.85,250713,,,D*73
$PGTOP,11,2*6E
$GPGGA,032742.000,3717.3153,N,12201.9251,W,2,8,0.86,89.3,M,-25.9,M,0000,0000*53
$GPRMC,032742.000,A,3717.3153,N,12201.9251,W,0.18,328.85,250713,,,D*7F
$PGTOP,11,2*6E
$GPGGA,032743.000,3717.3153,N,12201.9252,W,2,8,0.86,89.3,M,-25.9,M,0000,0000*51
$GPRMC,032743.000,A,3717.3153,N,12201.9252,W,0.14,328.85,250713,,,D*71
$PGTOP,11,2*6E
$GPGGA,032744.000,3717.3153,N,12201.9252,W,2,8,0.86,89.3,M,-25.9,M,0000,0000*56
$GPRMC,032744.000,A,3717.3153,N,12201.9252,W,0.11,328.85,250713,,,D*73
$PGTOP,11,2*6E
$GPGGA,032745.000,3717.3153,N,12201.9252,W,2,8,0.86,89.3,M,-25.9,M,0000,0000*57
$GPRMC,032745.000,A,3717.3153,N,12201.9252,W,0.12,328.85,250713,,,D*71
$PGTOP,11,2*6E
$GPGGA,032746.000,3717.3154,N,12201.9252,W,2,8,0.86,89.3,M,-25.9,M,0000,0000*53
$GPRMC,032746.000,A,3717.3154,N,12201.9252,W,0.13,328.85,250713,,,D*74
$PGTOP,11,2*6E
$GPGGA,032747.000,3717.3154,N,12201.9253,W,2,8,0.86,89.3,M,-25.9,M,0000,0000*53
$GPRMC,032747.000,A,3717.3154,N,12201.9253,W,0.11,328.85,250713,,,D*76
$PGTOP,11,2*6E
$GPGGA,032748.000,3717.3154,N,12201.9253,W,2,8,0.87,89.3,M,-25.9,M,0000,0000*5D
$GPRMC,032748.000,A,3717.3154,N,12201.9253,W,0.09,328.85,250713,,,D*70
$PGTOP,11,2*6E
$GPGGA,032749.000,3717.3154,N,12201.9253,W,2,8,0.86,89.3,M,-25.9,M,0000,0000*5D
$GPRMC,032749.000,A,3717.3154,N,12201.9253,W,0.07,328.85,250713,,,D*7F
$PGTOP,11,2*6E
$GPGGA,032750.000,3717.3154,N,12201.9252,W,2,8,0.86,89.3,M,-25.9,M,0000,0000*54
$GPRMC,032750.000,A,3717.3154,N,12201.9252,W,0.11,328.85,250713,,,D*71
$PGTOP,11,2*6E
$GPGGA,032751.000,3717.3154,N,12201.9252,W,2,8,0.86,89.3,M,-25.9,M,0000,0000*55
$GPRMC,032751.000,A,3717.3154,N,12201.9252,W,0.08,328.85,250713,,,D*78
$PGTOP,11,2*6E
$GPGGA,032752.000,3717.3154,N,12201.9252,W,2,8,0.86,89.3,M,-25.9,M,0000,0000*56
$GPRMC,032752.000,A,3717.3154,N,12201.9252,W,0.16,328.85,250713,,,D*74
$PGTOP,11,2*6E
$GPGGA,032753.000,3717.3154,N,12201.9252,W,2,8,0.86,89.3,M,-25.9,M,0000,0000*57
$GPRMC,032753.000,A,3717.3154,N,12201.9252,W,0.21,328.85,250713,,,D*71
$PGTOP,11,2*6E
$GPGGA,032754.000,3717.3154,N,12201.9253,W,2,8,0.86,89.3,M,-25.9,M,0000,0000*51
$GPRMC,032754.000,A,3717.3154,N,12201.9253,W,0.17,328.85,250713,,,D*72
$PGTOP,11,2*6E
$GPGGA,032755.000,3717.3154,N,12201.9254,W,2,8,0.86,89.3,M,-25.9,M,0000,0000*57
$GPRMC,032755.000,A,3717.3154,N,12201.9254,W,0.12,328.85,250713,,,D*71
$PGTOP,11,2*6E
$GPGGA,032756.000,3717.3154,N,12201.9254,W,2,7,0.94,89.3,M,-25.9,M,0000,0000*58
$GPRMC,032756.000,A,3717.3154,N,12201.9254,W,0.16,328.85,250713,,,D*76
$PGTOP,11,2*6E
$GPGGA,032757.000,3717.3154,N,12201.9255,W,2,7,0.94,89.3,M,-25.9,M,0000,0000*58
$GPRMC,032757.000,A,3717.3154,N,12201.9255,W,0.13,328.85,250713,,,D*73
$PGTOP,11,2*6E
$GPGGA,032758.000,3717.3154,N,12201.9255,W,2,8,0.86,89.3,M,-25.9,M,0000,0000*5B
$GPRMC,032758.000,A,3717.3154,N,12201.9255,W,0.20,328.85,250713,,,D*7C
$PGTOP,11,2*6E
$GPGGA,032759.000,3717.3154,N,12201.9255,W,2,8,0.86,89.4,M,-25.9,M,0000,0000*5D
$GPRMC,032759.000,A,3717.3154,N,12201.9255,W,0.08,328.85,250713,,,D*77
$PGTOP,11,2*6E
$GPGGA,032800.000,3717.3154,N,12201.9255,W,2,8,0.86,89.4,M,-25.9,M,0000,0000*5E
$GPRMC,032800.000,A,3717.3154,N,12201.9255,W,0.12,328.85,250713,,,D*7F
$PGTOP,11,2*6E
$GPGGA,032801.000,3717.3155,N,12201.9255,W,2,8,0.86,89.4,M,-25.9,M,0000,0000*5E
$GPRMC,032801.000,A,3717.3155,N,12201.9255,W,0.16,328.85,250713,,,D*7B
$PGTOP,11,2*6E
$GPGGA,032802.000,3717.3155,N,12201.9255,W,2,7,0.94,89.4,M,-25.9,M,0000,0000*51
$GPRMC,032802.000,A,3717.3155,N,12201.9255,W,0.11,328.85,250713,,,D*7F
$PGTOP,11,2*6E
$GPGGA,032803.000,3717.3155,N,12201.9254,W,2,8,0.86,89.4,M,-25.9,M,0000,0000*5D
$GPRMC,032803.000,A,3717.3155,N,12201.9254,W,0.05,328.85,250713,,,D*7A
$PGTOP,11,2*6E
$GPGGA,032804.000,3717.3155,N,12201.9254,W,2,8,0.86,89.4,M,-25.9,M,0000,0000*5A
$GPRMC,032804.000,A,3717.3155,N,12201.9254,W,0.11,328.85,250713,,,D*78
$PGTOP,11,2*6E
$GPGGA,032805.000,3717.3155,N,12201.9254,W,2,8,0.87,89.4,M,-25.9,M,0000,0000*5A
$GPRMC,032805.000,A,3717.3155,N,12201.9254,W,0.09,328.85,250713,,,D*70
$PGTOP,11,2*6E
$GPGGA,032806.000,3717.3155,N,12201.9254,W,2,8,0.87,89.4,M,-25.9,M,0000,0000*59
$GPRMC,032806.000,A,3717.3155,N,12201.9254,W,0.07,328.85,250713,,,D*7D
$PGTOP,11,2*6E
$GPGGA,032807.000,3717.3156,N,12201.9254,W,2,8,0.86,89.4,M,-25.9,M,0000,0000*5A
$GPRMC,032807.000,A,3717.3156,N,12201.9254,W,0.08,328.85,250713,,,D*70
$PGTOP,11,2*6E
$GPGGA,032808.000,3717.3156,N,12201.9254,W,2,8,0.87,89.4,M,-25.9,M,0000,0000*54
$GPRMC,032808.000,A,3717.3156,N,12201.9254,W,0.11,328.85,250713,,,D*77
$PGTOP,11,2*6E
$GPGGA,032809.000,3717.3156,N,12201.9254,W,2,8,0.87,89.4,M,-25.9,M,0000,0000*55
$GPRMC,032809.000,A,3717.3156,N,12201.9254,W,0.09,328.85,250713,,,D*7F
$PGTOP,11,2*6E
$GPGGA,032810.000,3717.3156,N,12201.9254,W,2,8,0.86,89.4,M,-25.9,M,0000,0000*5C
$GPRMC,032810.000,A,3717.3156,N,12201.9254,W,0.19,328.85,250713,,,D*76
$PGTOP,11,2*6E
$GPGGA,032811.000,3717.3156,N,12201.9255,W,2,8,0.86,89.4,M,-25.9,M,0000,0000*5C
$GPRMC,032811.000,A,3717.3156,N,12201.9255,W,0.23,328.85,250713,,,D*7F
$PGTOP,11,2*6E
$GPGGA,032812.000,3717.3157,N,12201.9256,W,2,8,0.86,89.4,M,-25.9,M,0000,0000*5D
$GPRMC,032812.000,A,3717.3157,N,12201.9256,W,0.24,328.85,250713,,,D*79
$PGTOP,11,2*6E
$GPGGA,032813.000,3717.3157,N,12201.9256,W,2,8,0.86,89.4,M,-25.9,M,0000,0000*5C
$GPRMC,032813.000,A,3717.3157,N,12201.9256,W,0.23,328.85,250713,,,D*7F
$PGTOP,11,2*6E
$GPGGA,032814.000,3717.3157,N,12201.9257,W,2,8,0.86,89.4,M,-25.9,M,0000,0000*5A
$GPRMC,032814.000,A,3717.3157,N,12201.9257,W,0.06,328.85,250713,,,D*7E
$PGTOP,11,2*6E
$GPGGA,032815.000,3717.3157,N,12201.9257,W,2,8,0.86,89.4,M,-25.9,M,0000,0000*5B
$GPRMC,032815.000,A,3717.3157,N,12201.9257,W,0.06,328.85,250713,,,D*7F
$PGTOP,11,2*6E
$GPGGA,032816.000,3717.3157,N,12201.9257,W,2,8,0.87,89.4,M,-25.9,M,0000,0000*59
$GPRMC,032816.000,A,3717.3157,N,12201.9257,W,0.07,328.85,250713,,,D*7D
$PGTOP,11,2*6E
$GPGGA,032817.000,3717.3157,N,12201.9257,W,2,8,0.87,89.4,M,-25.9,M,0000,0000*58
$GPRMC,032817.000,A,3717.3157,N,12201.9257,W,0.07,328.85,250713,,,D*7C
$PGTOP,11,2*6E
$GPGGA,032818.000,3717.3157,N,12201.9257,W,2,8,0.86,89.4,M,-25.9,M,0000,0000*56
$GPRMC,032818.000,A,3717.3157,N,12201.9257,W,0.09,328.85,250713,,,D*7D
$PGTOP,11,2*6E
$GPGGA,032819.000,3717.3157,N,12201.9258,W,2,8,0.86,89.4,M,-25.9,M,0000,0000*58
$GPRMC,032819.000,A,3717.3157,N,12201.9258,W,0.16,328.85,250713,,,D*7D
$PGTOP,11,2*6E
$GPGGA,032820.000,3717.3157,N,12201.9258,W,2,8,0.86,89.4,M,-25.9,M,0000,0000*52
$GPRMC,032820.000,A,3717.3157,N,12201.9258,W,0.09,328.85,250713,,,D*79
$PGTOP,11,2*6E
$GPGGA,032821.000,3717.3157,N,12201.9259,W,2,8,0.86,89.5,M,-25.9,M,0000,0000*53
$GPRMC,032821.000,A,3717.3157,N,12201.9259,W,0.16,328.85,250713,,,D*77
$PGTOP,11,2*6E
$GPGGA,032822.000,3717.3156,N,12201.9259,W,2,8,0.86,89.5,M,-25.9,M,0000,0000*51
$GPRMC,032822.000,A,3717.3156,N,12201.9259,W,0.13,328.85,250713,,,D*70
$PGTOP,11,2*6E
$GPGGA,032823.000,3717.3156,N,12201.9259,W,2,8,0.86,89.5,M,-25.9,M,0000,0000*50
$GPRMC,032823.000,A,3717.3156,N,12201.9259,W,0.21,328.85,250713,,,D*70
$PGTOP,11,2*6E
$GPGGA,032824.000,3717.3155,N,12201.9259,W,2,8,0.86,89.5,M,-25.9,M,0000,0000*54
$GPRMC,032824.000,A,3717.3155,N,12201.9259,W,0.25,328.85,250713,,,D*70
$PGTOP,11,2*6E
$GPGGA,032825.000,3717.3155,N,12201.9258,W,2,8,0.86,89.5,M,-25.9,M,0000,0000*54
$GPRMC,032825.000,A,3717.3155,N,12201.9258,W,0.26,328.85,250713,,,D*73
$PGTOP,11,2*6E
$GPGGA,032826.000,3717.3154,N,12201.9258,W,2,8,0.86,89.5,M,-25.9,M,0000,0000*56
$GPRMC,032826.000,A,3717.3154,N,12201.9258,W,0.18,328.85,250713,,,D*7C
$PGTOP,11,2*6E
$GPGGA,032827.000,3717.3153,N,12201.9258,W,2,8,0.86,89.5,M,-25.9,M,0000,0000*50
$GPRMC,032827.000,A,3717.3153,N,12201.9258,W,0.11,328.85,250713,,,D*73
$PGTOP,11,2*6E
$GPGGA,032828.000,3717.3153,N,12201.9258,W,2,8,0.86,89.5,M,-25.9,M,0000,0000*5F
$GPRMC,032828.000,A,3717.3153,N,12201.9258,W,0.11,328.85,250713,,,D*7C
$PGTOP,11,2*6E
$GPGGA,032829.000,3717.3153,N,12201.9258,W,2,8,0.86,89.5,M,-25.9,M,0000,0000*5E
$GPRMC,032829.000,A,3717.3153,N,12201.9258,W,0.09,328.85,250713,,,D*74
$PGTOP,11,2*6E
$GPGGA,032830.000,3717.3153,N,12201.9258,W,2,8,0.86,89.5,M,-25.9,M,0000,0000*56
$GPRMC,032830.000,A,3717.3153,N,12201.9258,W,0.16,328.85,250713,,,D*72
$PGTOP,11,2*6E
$GPGGA,032831.000,3717.3153,N,12201.9259,W,2,8,0.86,89.5,M,-25.9,M,0000,0000*56
$GPRMC,032831.000,A,3717.3153,N,12201.9259,W,0.20,328.85,250713,,,D*77
$PGTOP,11,2*6E
$GPGGA,032832.000,3717.3152,N,12201.9259,W,2,8,0.86,89.5,M,-25.9,M,0000,0000*54
$GPRMC,032832.000,A,3717.3152,N,12201.9259,W,0.18,328.85,250713,,,D*7E
$PGTOP,11,2*6E
$GPGGA,032833.000,3717.3152,N,12201.9260,W,2,8,0.86,89.5,M,-25.9,M,0000,0000*5F
$GPRMC,032833.000,A,3717.3152,N,12201.9260,W,0.19,328.85,250713,,,D*74
$PGTOP,11,2*6E
$GPGGA,032834.000,3717.3152,N,12201.9260,W,2,8,0.86,89.5,M,-25.9,M,0000,0000*58
$GPRMC,032834.000,A,3717.3152,N,12201.9260,W,0.15,328.85,250713,,,D*7F
$PGTOP,11,2*6E
$GPGGA,032835.000,3717.3151,N,12201.9261,W,2,8,0.86,89.5,M,-25.9,M,0000,0000*5B
$GPRMC,032835.000,A,3717.3151,N,12201.9261,W,0.18,328.85,250713,,,D*71
$PGTOP,11,2*6E
$GPGGA,032836.000,3717.3151,N,12201.9261,W,2,8,0.86,89.5,M,-25.9,M,0000,0000*58
$GPRMC,032836.000,A,3717.3151,N,12201.9261,W,0.17,328.85,250713,,,D*7D
$PGTOP,11,2*6E
$GPGGA,032837.000,3717.3151,N,12201.9262,W,2,8,0.86,89.5,M,-25.9,M,0000,0000*5A
$GPRMC,032837.000,A,3717.3151,N,12201.9262,W,0.18,328.85,250713,,,D*70
$PGTOP,11,2*6E
$GPGGA,032838.000,3717.3151,N,12201.9262,W,2,8,0.86,89.5,M,-25.9,M,0000,0000*55
$GPRMC,032838.000,A,3717.3151,N,12201.9262,W,0.24,328.85,250713,,,D*70
$PGTOP,11,2*6E
$GPGGA,032839.000,3717.3150,N,12201.9262,W,2,8,0.86,89.5,M,-25.9,M,0000,0000*55
$GPRMC,032839.000,A,3717.3150,N,12201.9262,W,0.22,328.85,250713,,,D*76
$PGTOP,11,2*6E
$GPGGA,032840.000,3717.3149,N,12201.9262,W,2,8,0.86,89.5,M,-25.9,M,0000,0000*53
$GPRMC,032840.000,A,3717.3149,N,12201.9262,W,0.19,328.85,250713,,,D*78
$PGTOP,11,2*6E
$GPGGA,032841.000,3717.3149,N,12201.9261,W,2,8,0.86,89.5,M,-25.9,M,0000,0000*51
$GPRMC,032841.000,A,3717.3149,N,12201.9261,W,0.12,328.85,250713,,,D*71
$PGTOP,11,2*6E
$GPGGA,032842.000,3717.3149,N,12201.9261,W,2,8,0.86,89.5,M,-25.9,M,0000,0000*52
$GPRMC,032842.000,A,3717.3149,N,12201.9261,W,0.09,328.85,250713,,,D*78
$PGTOP,11,2*6E
$GPGGA,032843.000,3717.3149,N,12201.9261,W,2,8,0.86,89.5,M,-25.9,M,0000,0000*53
$GPRMC,032843.000,A,3717.3149,N,12201.9261,W,0.12,328.85,250713,,,D*73
$PGTOP,11,2*6E
$GPGGA,032844.000,3717.3148,N,12201.9261,W,2,8,0.86,89.5,M,-25.9,M,0000,0000*55
$GPRMC,032844.000,A,3717.3148,N,12201.9261,W,0.12,328.85,250713,,,D*75
$PGTOP,11,2*6E
$GPGGA,032845.000,3717.3148,N,12201.9261,W,2,8,0.86,89.5,M,-25.9,M,0000,0000*54
$GPRMC,032845.000,A,3717.3148,N,12201.9261,W,0.09,328.85,250713,,,D*7E
$PGTOP,11,2*6E
$GPGGA,032846.000,3717.3148,N,12201.9261,W,2,8,0.86,89.5,M,-25.9,M,0000,0000*57
$GPRMC,032846.000,A,3717.3148,N,12201.9261,W,0.07,328.85,250713,,,D*73
$PGTOP,11,2*6E
$GPGGA,032847.000,3717.3148,N,12201.9261,W,2,8,0.86,89.5,M,-25.9,M,0000,0000*56
$GPRMC,032847.000,A,3717.3148,N,12201.9261,W,0.04,328.85,250713,,,D*71
$PGTOP,11,2*6E
$GPGGA,032848.000,3717.3148,N,12201.9261,W,2,8,0.86,89.5,M,-25.9,M,0000,0000*59
$GPRMC,032848.000,A,3717.3148,N,12201.9261,W,0.17,328.85,250713,,,D*7C
$PGTOP,11,2*6E
$GPGGA,032849.000,3717.3148,N,12201.9260,W,2,8,0.86,89.5,M,-25.9,M,0000,0000*59
$GPRMC,032849.000,A,3717.3148,N,12201.9260,W,0.18,328.85,250713,,,D*73
$PGTOP,11,2*6E
$GPGGA,032850.000,3717.3148,N,12201.9260,W,2,8,0.86,89.5,M,-25.9,M,0000,0000*51
$GPRMC,032850.000,A,3717.3148,N,12201.9260,W,0.12,328.85,250713,,,D*71
$PGTOP,11,2*6E
$GPGGA,032851.000,3717.3149,N,12201.9260,W,2,8,0.87,89.5,M,-25.9,M,0000,0000*50
$GPRMC,032851.000,A,3717.3149,N,12201.9260,W,0.14,328.85,250713,,,D*77
$PGTOP,11,2*6E
$GPGGA,032852.000,3717.3149,N,12201.9260,W,2,8,0.86,89.5,M,-25.9,M,0000,0000*52
$GPRMC,032852.000,A,3717.3149,N,12201.9260,W,0.22,328.85,250713,,,D*71
$PGTOP,11,2*6E
$GPGGA,032853.000,3717.3150,N,12201.9260,W,2,8,0.86,89.5,M,-25.9,M,0000,0000*5B
$GPRMC,032853.000,A,3717.3150,N,12201.9260,W,0.28,328.85,250713,,,D*72
$PGTOP,11,2*6E
$GPGGA,032854.000,3717.3150,N,12201.9260,W,2,8,0.87,89.5,M,-25.9,M,0000,0000*5D
$GPRMC,032854.000,A,3717.3150,N,12201.9260,W,0.26,328.85,250713,,,D*7B
$PGTOP,11,2*6E
$GPGGA,032855.000,3717.3151,N,12201.9260,W,2,8,0.87,89.5,M,-25.9,M,0000,0000*5D
$GPRMC,032855.000,A,3717.3151,N,12201.9260,W,0.15,328.85,250713,,,D*7B
$PGTOP,11,2*6E
$GPGGA,032856.000,3717.3151,N,12201.9260,W,2,8,0.87,89.5,M,-25.9,M,0000,0000*5E
$GPRMC,032856.000,A,3717.3151,N,12201.9260,W,0.15,328.85,250713,,,D*78
$PGTOP,11,2*6E
$GPGGA,032857.000,3717.3152,N,12201.9260,W,2,8,0.87,89.5,M,-25.9,M,0000,0000*5C
$GPRMC,032857.000,A,3717.3152,N,12201.9260,W,0.20,328.85,250713,,,D*7C
$PGTOP,11,2*6E
$GPGGA,032858.000,3717.3152,N,12201.9259,W,2,8,0.86,89.5,M,-25.9,M,0000,0000*58
$GPRMC,032858.000,A,3717.3152,N,12201.9259,W,0.16,328.85,250713,,,D*7C
$PGTOP,11,2*6E
$GPGGA,032859.000,3717.3152,N,12201.9259,W,2,8,0.86,89.5,M,-25.9,M,0000,0000*59
$GPRMC,032859.000,A,3717.3152,N,12201.9259,W,0.16,328.85,250713,,,D*7D
$PGTOP,11,2*6E
$GPGGA,032900.000,3717.3153,N,12201.9259,W,2,8,0.86,89.5,M,-25.9,M,0000,0000*55
$GPRMC,032900.000,A,3717.3153,N,12201.9259,W,0.14,328.85,250713,,,D*73
$PGTOP,11,2*6E
$GPGGA,032901.000,3717.3153,N,12201.9259,W,2,8,0.86,89.5,M,-25.9,M,0000,0000*54
$GPRMC,032901.000,A,3717.3153,N,12201.9259,W,0.20,328.85,250713,,,D*75
$PGTOP,11,2*6E
$GPGGA,032902.000,3717.3153,N,12201.9258,W,2,8,0.86,89.5,M,-25.9,M,0000,0000*56
$GPRMC,032902.000,A,3717.3153,N,12201.9258,W,0.20,328.85,250713,,,D*77
$PGTOP,11,2*6E
$GPGGA,032903.000,3717.3154,N,12201.9258,W,2,8,0.86,89.5,M,-25.9,M,0000,0000*50
$GPRMC,032903.000,A,3717.3154,N,12201.9258,W,0.15,328.85,250713,,,D*77
$PGTOP,11,2*6E
$GPGGA,032904.000,3717.3154,N,12201.9258,W,2,8,0.87,89.5,M,-25.9,M,0000,0000*56
$GPRMC,032904.000,A,3717.3154,N,12201.9258,W,0.08,328.85,250713,,,D*7C
$PGTOP,11,2*6E
$GPGGA,032905.000,3717.3154,N,12201.9258,W,2,8,0.86,89.5,M,-25.9,M,0000,0000*56
$GPRMC,032905.000,A,3717.3154,N,12201.9258,W,0.13,328.85,250713,,,D*77
$PGTOP,11,2*6E
$GPGGA,032906.000,3717.3154,N,12201.9258,W,2,8,0.86,89.5,M,-25.9,M,0000,0000*55
$GPRMC,032906.000,A,3717.3154,N,12201.9258,W,0.18,328.85,250713,,,D*7F
$PGTOP,11,2*6E
