$PGTOP,11,2*6E
$GPRMC,024132.000,A,3717.3184,N,12201.9272,W,0.17,77.05,250713,,,A*49
$PGTOP,11,2*6E
$GPGGA,024133.000,3717.3184,N,12201.9272,W,1,6,1.57,97.5,M,-25.9,M,,*56
$GPRMC,024133.000,A,3717.3184,N,12201.9272,W,0.17,77.05,250713,,,A*48
$PGTOP,11,2*6E
$GPGGA,024134.000,3717.3185,N,12201.9272,W,1,6,1.63,97.5,M,-25.9,M,,*57
$GPRMC,024134.000,A,3717.3185,N,12201.9272,W,0.17,77.05,250713,,,A*4E
$PGTOP,11,2*6E
$GPGGA,024135.000,3717.3185,N,12201.9272,W,1,6,1.57,97.5,M,-25.9,M,,*51
$GPRMC,024135.000,A,3717.3185,N,12201.9272,W,0.16,77.05,250713,,,A*4E
$PGTOP,11,2*6E
$GPGGA,024136.000,3717.3185,N,12201.9273,W,1,6,1.57,97.5,M,-25.9,M,,*53
$GPRMC,024136.000,A,3717.3185,N,12201.9273,W,0.14,77.05,250713,,,A*4E
$PGTOP,11,2*6E
$GPGGA,024137.000,3717.3185,N,12201.9273,W,1,6,1.57,97.5,M,-25.9,M,,*52
$GPRMC,024137.000,A,3717.3185,N,12201.9273,W,0.10,77.05,250713,,,A*4B
$PGTOP,11,2*6E
$GPGGA,024138.000,3717.3184,N,12201.9273,W,1,6,1.57,97.5,M,-25.9,M,,*5C
$GPRMC,024138.000,A,3717.3184,N,12201.9273,W,0.07,77.05,250713,,,A*43
$PGTOP,11,2*6E
$GPGGA,024139.000,3717.3184,N,12201.9273,W,1,6,1.57,97.5,M,-25.9,M,,*5D
$GPRMC,024139.000,A,3717.3184,N,12201.9273,W,0.17,77.05,250713,,,A*43
$PGTOP,11,2*6E
$GPGGA,024140.000,3717.3184,N,12201.9273,W,1,6,1.57,97.5,M,-25.9,M,,*53
$GPRMC,024140.000,A,3717.3184,N,12201.9273,W,0.18,77.05,250713,,,A*42
$PGTOP,11,2*6E
$GPGGA,024141.000,3717.3183,N,12201.9272,W,1,6,1.57,97.5,M,-25.9,M,,*54
$GPRMC,024141.000,A,3717.3183,N,12201.9272,W,0.22,77.05,250713,,,A*4C
$PGTOP,11,2*6E
$GPGGA,024142.000,3717.3183,N,12201.9271,W,1,6,1.57,97.5,M,-25.9,M,,*54
$GPRMC,024142.000,A,3717.3183,N,12201.9271,W,0.14,77.05,250713,,,A*49
$PGTOP,11,2*6E
$GPGGA,024143.000,3717.3183,N,12201.9271,W,1,6,1.57,97.5,M,-25.9,M,,*55
$GPRMC,024143.000,A,3717.3183,N,12201.9271,W,0.27,77.05,250713,,,A*48
$PGTOP,11,2*6E
$GPGGA,024144.000,3717.3182,N,12201.9270,W,1,6,1.57,97.5,M,-25.9,M,,*52
$GPRMC,024144.000,A,3717.3182,N,12201.9270,W,0.33,77.05,250713,,,A*4A
$PGTOP,11,2*6E
$GPGGA,024145.000,3717.3181,N,12201.9270,W,1,6,1.57,97.5,M,-25.9,M,,*50
$GPRMC,024145.000,A,3717.3181,N,12201.9270,W,0.35,77.05,250713,,,A*4E
$PGTOP,11,2*6E
$GPGGA,024146.000,3717.3181,N,12201.9269,W,1,6,1.57,97.5,M,-25.9,M,,*5B
$GPRMC,024146.000,A,3717.3181,N,12201.9269,W,0.22,77.05,250713,,,A*43
$PGTOP,11,2*6E
$GPGGA,024147.000,3717.3180,N,12201.9268,W,1,6,1.57,97.5,M,-25.9,M,,*5A
$GPRMC,024147.000,A,3717.3180,N,12201.9268,W,0.18,77.05,250713,,,A*4B
$PGTOP,11,2*6E
$GPGGA,024148.000,3717.3180,N,12201.9268,W,1,6,1.57,97.4,M,-25.9,M,,*54
$GPRMC,024148.000,A,3717.3180,N,12201.9268,W,0.14,77.05,250713,,,A*48
$PGTOP,11,2*6E
$GPGGA,024149.000,3717.3180,N,12201.9267,W,1,6,1.57,97.4,M,-25.9,M,,*5A
$GPRMC,024149.000,A,3717.3180,N,12201.9267,W,0.20,77.05,250713,,,A*41
$PGTOP,11,2*6E
$GPGGA,024150.000,3717.3180,N,12201.9267,W,1,6,1.57,97.4,M,-25.9,M,,*52
$GPRMC,024150.000,A,3717.3180,N,12201.9267,W,0.12,77.05,250713,,,A*48
$PGTOP,11,2*6E
$GPGGA,024151.000,3717.3179,N,12201.9266,W,1,6,1.57,97.4,M,-25.9,M,,*54
$GPRMC,024151.000,A,3717.3179,N,12201.9266,W,0.14,77.05,250713,,,A*48
$PGTOP,11,2*6E
$GPGGA,024152.000,3717.3179,N,12201.9266,W,1,6,1.57,97.4,M,-25.9,M,,*57
$GPRMC,024152.000,A,3717.3179,N,12201.9266,W,0.11,77.05,250713,,,A*4E
$PGTOP,11,2*6E
$GPGGA,024153.000,3717.3179,N,12201.9266,W,1,6,1.57,97.4,M,-25.9,M,,*56
$GPRMC,024153.000,A,3717.3179,N,12201.9266,W,0.09,77.05,250713,,,A*46
$PGTOP,11,2*6E
$GPGGA,024154.000,3717.3179,N,12201.9266,W,1,6,1.57,97.4,M,-25.9,M,,*51
$GPRMC,024154.000,A,3717.3179,N,12201.9266,W,0.11,77.05,250713,,,A*48
$PGTOP,11,2*6E
$GPGGA,024155.000,3717.3179,N,12201.9265,W,1,6,1.57,97.4,M,-25.9,M,,*53
$GPRMC,024155.000,A,3717.3179,N,12201.9265,W,0.12,77.05,250713,,,A*49
$PGTOP,11,2*6E
$GPGGA,024156.000,3717.3179,N,12201.9265,W,1,6,1.57,97.4,M,-25.9,M,,*50
$GPRMC,024156.000,A,3717.3179,N,12201.9265,W,0.25,77.05,250713,,,A*4E
$PGTOP,11,2*6E
$GPGGA,024157.000,3717.3180,N,12201.9264,W,1,6,1.57,97.4,M,-25.9,M,,*56
$GPRMC,024157.000,A,3717.3180,N,12201.9264,W,0.19,77.05,250713,,,A*47
$PGTOP,11,2*6E
$GPGGA,024158.000,3717.3180,N,12201.9264,W,1,6,1.62,97.4,M,-25.9,M,,*5F
$GPRMC,024158.000,A,3717.3180,N,12201.9264,W,0.14,77.05,250713,,,A*45
$PGTOP,11,2*6E
$GPGGA,024159.000,3717.3181,N,12201.9264,W,1,6,1.57,97.4,M,-25.9,M,,*59
$GPRMC,024159.000,A,3717.3181,N,12201.9264,W,0.11,77.05,250713,,,A*40
$PGTOP,11,2*6E
$GPGGA,024200.000,3717.3181,N,12201.9264,W,1,6,1.57,97.4,M,-25.9,M,,*56
$GPRMC,024200.000,A,3717.3181,N,12201.9264,W,0.05,77.05,250713,,,A*4A
$PGTOP,11,2*6E
$GPGGA,024201.000,3717.3181,N,12201.9264,W,1,6,1.57,97.4,M,-25.9,M,,*57
$GPRMC,024201.000,A,3717.3181,N,12201.9264,W,0.08,77.05,250713,,,A*46
$PGTOP,11,2*6E
$GPGGA,024202.000,3717.3181,N,12201.9264,W,1,6,1.57,97.4,M,-25.9,M,,*54
$GPRMC,024202.000,A,3717.3181,N,12201.9264,W,0.12,77.05,250713,,,A*4E
$PGTOP,11,2*6E
$GPGGA,024203.000,3717.3180,N,12201.9264,W,1,6,1.57,97.4,M,-25.9,M,,*54
$GPRMC,024203.000,A,3717.3180,N,12201.9264,W,0.03,77.05,250713,,,A*4E
$PGTOP,11,2*6E
$GPGGA,024204.000,3717.3180,N,12201.9264,W,1,6,1.57,97.4,M,-25.9,M,,*53
$GPRMC,024204.000,A,3717.3180,N,12201.9264,W,0.03,77.05,250713,,,A*49
$PGTOP,11,2*6E
$GPGGA,024205.000,3717.3180,N,12201.9264,W,1,6,1.62,97.4,M,-25.9,M,,*54
$GPRMC,024205.000,A,3717.3180,N,12201.9264,W,0.09,77.05,250713,,,A*42
$PGTOP,11,2*6E
$GPGGA,024206.000,3717.3181,N,12201.9264,W,1,6,1.57,97.4,M,-25.9,M,,*50
$GPRMC,024206.000,A,3717.3181,N,12201.9264,W,0.13,77.05,250713,,,A*4B
$PGTOP,11,2*6E
$GPGGA,024207.000,3717.3181,N,12201.9265,W,1,6,1.57,97.4,M,-25.9,M,,*50
$GPRMC,024207.000,A,3717.3181,N,12201.9265,W,0.09,77.05,250713,,,A*40
$PGTOP,11,2*6E
$GPGGA,024208.000,3717.3181,N,12201.9265,W,1,6,1.62,97.4,M,-25.9,M,,*59
$GPRMC,024208.000,A,3717.3181,N,12201.9265,W,0.08,77.05,250713,,,A*4E
$PGTOP,11,2*6E
$GPGGA,024209.000,3717.3181,N,12201.9265,W,1,6,1.57,97.4,M,-25.9,M,,*5E
$GPRMC,024209.000,A,3717.3181,N,12201.9265,W,0.15,77.05,250713,,,A*43
$PGTOP,11,2*6E
$GPGGA,024210.000,3717.3181,N,12201.9264,W,1,6,1.57,97.4,M,-25.9,M,,*57
$GPRMC,024210.000,A,3717.3181,N,12201.9264,W,0.17,77.05,250713,,,A*48
$PGTOP,11,2*6E
$GPGGA,024211.000,3717.3181,N,12201.9264,W,1,6,1.57,97.4,M,-25.9,M,,*56
$GPRMC,024211.000,A,3717.3181,N,12201.9264,W,0.07,77.05,250713,,,A*48
$PGTOP,11,2*6E
$GPGGA,024212.000,3717.3181,N,12201.9264,W,1,6,1.57,97.4,M,-25.9,M,,*55
$GPRMC,024212.000,A,3717.3181,N,12201.9264,W,0.08,77.05,250713,,,A*44
$PGTOP,11,2*6E
$GPGGA,024213.000,3717.3181,N,12201.9264,W,1,6,1.57,97.4,M,-25.9,M,,*54
$GPRMC,024213.000,A,3717.3181,N,12201.9264,W,0.10,77.05,250713,,,A*4C
$PGTOP,11,2*6E
$GPGGA,024214.000,3717.3181,N,12201.9264,W,1,6,1.57,97.4,M,-25.9,M,,*53
$GPRMC,024214.000,A,3717.3181,N,12201.9264,W,0.07,77.05,250713,,,A*4D
$PGTOP,11,2*6E
$GPGGA,024215.000,3717.3181,N,12201.9264,W,1,6,1.57,97.4,M,-25.9,M,,*52
$GPRMC,024215.000,A,3717.3181,N,12201.9264,W,0.22,77.05,250713,,,A*4B
$PGTOP,11,2*6E
$GPGGA,024216.000,3717.3181,N,12201.9265,W,1,6,1.57,97.4,M,-25.9,M,,*50
$GPRMC,024216.000,A,3717.3181,N,12201.9265,W,0.25,77.05,250713,,,A*4E
$PGTOP,11,2*6E
$GPGGA,024217.000,3717.3180,N,12201.9266,W,1,6,1.57,97.4,M,-25.9,M,,*53
$GPRMC,024217.000,A,3717.3180,N,12201.9266,W,0.23,77.05,250713,,,A*4B
$PGTOP,11,2*6E
$GPGGA,024218.000,3717.3180,N,12201.9267,W,1,6,1.57,97.4,M,-25.9,M,,*5D
$GPRMC,024218.000,A,3717.3180,N,12201.9267,W,0.16,77.05,250713,,,A*43
$PGTOP,11,2*6E
$GPGGA,024219.000,3717.3180,N,12201.9267,W,1,6,1.57,97.4,M,-25.9,M,,*5C
$GPRMC,024219.000,A,3717.3180,N,12201.9267,W,0.15,77.05,250713,,,A*41
$PGTOP,11,2*6E
$GPGGA,024220.000,3717.3180,N,12201.9267,W,1,6,1.57,97.4,M,-25.9,M,,*56
$GPRMC,024220.000,A,3717.3180,N,12201.9267,W,0.15,77.05,250713,,,A*4B
$PGTOP,11,2*6E
$GPGGA,024221.000,3717.3179,N,12201.9268,W,1,6,1.57,97.4,M,-25.9,M,,*5E
$GPRMC,024221.000,A,3717.3179,N,12201.9268,W,0.20,77.05,250713,,,A*45
$PGTOP,11,2*6E
$GPGGA,024222.000,3717.3179,N,12201.9269,W,1,6,1.56,97.4,M,-25.9,M,,*5D
$GPRMC,024222.000,A,3717.3179,N,12201.9269,W,0.23,77.05,250713,,,A*44
$PGTOP,11,2*6E
$GPGGA,024223.000,3717.3179,N,12201.9269,W,1,6,1.57,97.4,M,-25.9,M,,*5D
$GPRMC,024223.000,A,3717.3179,N,12201.9269,W,0.22,77.05,250713,,,A*44
$PGTOP,11,2*6E
$GPGGA,024224.000,3717.3179,N,12201.9270,W,1,6,1.57,97.4,M,-25.9,M,,*52
$GPRMC,024224.000,A,3717.3179,N,12201.9270,W,0.25,77.05,250713,,,A*4C
$PGTOP,11,2*6E
$GPGGA,024225.000,3717.3178,N,12201.9271,W,1,6,1.57,97.4,M,-25.9,M,,*53
$GPRMC,024225.000,A,3717.3178,N,12201.9271,W,0.29,77.05,250713,,,A*41
$PGTOP,11,2*6E
$GPGGA,024226.000,3717.3178,N,12201.9272,W,1,5,1.82,97.4,M,-25.9,M,,*58
$GPRMC,024226.000,A,3717.3178,N,12201.9272,W,0.28,77.05,250713,,,A*40
$PGTOP,11,2*6E
$GPGGA,024227.000,3717.3176,N,12201.9272,W,2,5,1.82,97.4,M,-25.9,M,0000,0000*54
$GPRMC,024227.000,A,3717.3176,N,12201.9272,W,0.25,77.05,250713,,,D*47
$PGTOP,11,2*6E
$GPGGA,024228.000,3717.3175,N,12201.9272,W,2,5,1.82,97.4,M,-25.9,M,0000,0000*58
$GPRMC,024228.000,A,3717.3175,N,12201.9272,W,0.22,77.05,250713,,,D*4C
$PGTOP,11,2*6E
$GPGGA,024229.000,3717.3171,N,12201.9272,W,2,6,1.56,97.4,M,-25.9,M,0000,0000*57
$GPRMC,024229.000,A,3717.3171,N,12201.9272,W,0.21,77.05,250713,,,D*4A
$PGTOP,11,2*6E
$GPGGA,024230.000,3717.3167,N,12201.9272,W,2,6,1.56,97.4,M,-25.9,M,0000,0000*58
$GPRMC,024230.000,A,3717.3167,N,12201.9272,W,0.25,77.05,250713,,,D*41
$PGTOP,11,2*6E
$GPGGA,024231.000,3717.3165,N,12201.9272,W,2,6,1.57,97.4,M,-25.9,M,0000,0000*5A
$GPRMC,024231.000,A,3717.3165,N,12201.9272,W,0.28,77.05,250713,,,D*4F
$PGTOP,11,2*6E
$GPGGA,024232.000,3717.3163,N,12201.9274,W,2,6,1.57,97.4,M,-25.9,M,0000,0000*59
$GPRMC,024232.000,A,3717.3163,N,12201.9274,W,0.30,77.05,250713,,,D*45
$PGTOP,11,2*6E
$GPGGA,024233.000,3717.3162,N,12201.9275,W,2,6,1.56,97.4,M,-25.9,M,0000,0000*59
$GPRMC,024233.000,A,3717.3162,N,12201.9275,W,0.33,77.05,250713,,,D*47
$PGTOP,11,2*6E
$GPGGA,024234.000,3717.3162,N,12201.9275,W,2,6,1.56,97.4,M,-25.9,M,0000,0000*5E
$GPRMC,024234.000,A,3717.3162,N,12201.9275,W,0.33,77.05,250713,,,D*40
$PGTOP,11,2*6E
$GPGGA,024235.000,3717.3160,N,12201.9274,W,2,6,1.57,97.4,M,-25.9,M,0000,0000*5D
$GPRMC,024235.000,A,3717.3160,N,12201.9274,W,0.31,77.05,250713,,,D*40
$PGTOP,11,2*6E
$GPGGA,024236.000,3717.3159,N,12201.9274,W,2,6,1.56,97.4,M,-25.9,M,0000,0000*55
$GPRMC,024236.000,A,3717.3159,N,12201.9274,W,0.28,77.05,250713,,,D*41
$PGTOP,11,2*6E
$GPGGA,024237.000,3717.3160,N,12201.9276,W,2,6,1.57,97.4,M,-25.9,M,0000,0000*5D
$GPRMC,024237.000,A,3717.3160,N,12201.9276,W,0.24,77.05,250713,,,D*44
$PGTOP,11,2*6E
$GPGGA,024238.000,3717.3159,N,12201.9276,W,2,6,1.56,97.4,M,-25.9,M,0000,0000*59
$GPRMC,024238.000,A,3717.3159,N,12201.9276,W,0.22,77.05,250713,,,D*47
$PGTOP,11,2*6E
$GPGGA,024239.000,3717.3156,N,12201.9276,W,2,6,1.57,97.4,M,-25.9,M,0000,0000*56
$GPRMC,024239.000,A,3717.3156,N,12201.9276,W,0.24,77.05,250713,,,D*4F
$PGTOP,11,2*6E
$GPGGA,024240.000,3717.3152,N,12201.9274,W,2,6,1.56,97.4,M,-25.9,M,0000,0000*5F
$GPRMC,024240.000,A,3717.3152,N,12201.9274,W,0.50,77.05,250713,,,D*44
$PGTOP,11,2*6E
$GPGGA,024241.000,3717.3149,N,12201.9274,W,2,6,1.56,97.4,M,-25.9,M,0000,0000*54
$GPRMC,024241.000,A,3717.3149,N,12201.9274,W,0.53,77.05,250713,,,D*4C
$PGTOP,11,2*6E
$GPGGA,024242.000,3717.3149,N,12201.9272,W,2,6,1.56,97.3,M,-25.9,M,0000,0000*56
$GPRMC,024242.000,A,3717.3149,N,12201.9272,W,0.54,77.05,250713,,,D*4E
$PGTOP,11,2*6E
$GPGGA,024243.000,3717.3156,N,12201.9274,W,2,6,1.56,97.3,M,-25.9,M,0000,0000*5F
$GPRMC,024243.000,A,3717.3156,N,12201.9274,W,0.32,77.05,250713,,,D*47
$PGTOP,11,2*6E
$GPGGA,024244.000,3717.3161,N,12201.9276,W,2,6,1.56,97.2,M,-25.9,M,0000,0000*5F
$GPRMC,024244.000,A,3717.3161,N,12201.9276,W,0.29,77.05,250713,,,D*4C
$PGTOP,11,2*6E
$GPGGA,024245.000,3717.3164,N,12201.9278,W,2,6,1.56,97.2,M,-25.9,M,0000,0000*55
$GPRMC,024245.000,A,3717.3164,N,12201.9278,W,0.22,77.05,250713,,,D*4D
$PGTOP,11,2*6E
$GPGGA,024246.000,3717.3165,N,12201.9280,W,2,6,1.56,97.1,M,-25.9,M,0000,0000*53
$GPRMC,024246.000,A,3717.3165,N,12201.9280,W,0.06,77.05,250713,,,D*4E
$PGTOP,11,2*6E
$GPGGA,024247.000,3717.3167,N,12201.9281,W,2,6,1.56,97.1,M,-25.9,M,0000,0000*51
$GPRMC,024247.000,A,3717.3167,N,12201.9281,W,0.06,77.05,250713,,,D*4C
$PGTOP,11,2*6E
$GPGGA,024248.000,3717.3171,N,12201.9282,W,2,6,1.56,97.1,M,-25.9,M,0000,0000*5A
$GPRMC,024248.000,A,3717.3171,N,12201.9282,W,0.05,77.05,250713,,,D*44
$PGTOP,11,2*6E
$GPGGA,024249.000,3717.3171,N,12201.9282,W,2,6,1.56,97.1,M,-25.9,M,0000,0000*5B
$GPRMC,024249.000,A,3717.3171,N,12201.9282,W,0.07,77.05,250713,,,D*47
$PGTOP,11,2*6E
$GPGGA,024250.000,3717.3173,N,12201.9280,W,2,6,1.56,97.1,M,-25.9,M,0000,0000*53
$GPRMC,024250.000,A,3717.3173,N,12201.9280,W,0.08,77.05,250713,,,D*40
$PGTOP,11,2*6E
$GPGGA,024251.000,3717.3172,N,12201.9279,W,2,6,1.56,97.1,M,-25.9,M,0000,0000*55
$GPRMC,024251.000,A,3717.3172,N,12201.9279,W,0.06,77.05,250713,,,D*48
$PGTOP,11,2*6E
$GPGGA,024252.000,3717.3173,N,12201.9280,W,2,6,1.56,97.1,M,-25.9,M,0000,0000*51
$GPRMC,024252.000,A,3717.3173,N,12201.9280,W,0.07,77.05,250713,,,D*4D
$PGTOP,11,2*6E
$GPGGA,024253.000,3717.3171,N,12201.9279,W,2,6,1.56,97.1,M,-25.9,M,0000,0000*54
$GPRMC,024253.000,A,3717.3171,N,12201.9279,W,0.09,77.05,250713,,,D*46
201.9299,W,0.43,141.20,250713,,,D*77
74,N,12201.9299,W,2,7,1.14,88.9,M,-25.9,M,0000,0000*59
$GPRMC,025839.000,A,3717.3174,N,12201.9299,W,0.43,141.20,250713,,,D*77
$PGTOP,11,2*6E
$GPGGA,025840.000,3717.3177,N,12201.9303,W,2,7,1.14,88.8,M,-25.9,M,0000,0000*57
$GPRMC,025840.000,A,3717.3177,N,12201.9303,W,0.82,342.68,250713,,,D*78
$PGTOP,11,2*6E
$GPGGA,025841.000,3717.3179,N,12201.9305,W,2,7,1.14,88.7,M,-25.9,M,0000,0000*51
$GPRMC,025841.000,A,3717.3179,N,12201.9305,W,0.38,342.68,250713,,,D*70
$PGTOP,11,2*6E
$GPGGA,025842.000,3717.3180,N,12201.9304,W,2,7,1.14,88.7,M,-25.9,M,0000,0000*55
$GPRMC,025842.000,A,3717.3180,N,12201.9304,W,0.37,342.68,250713,,,D*7B
$PGTOP,11,2*6E
$GPGGA,025843.000,3717.3179,N,12201.9302,W,2,7,1.14,88.6,M,-25.9,M,0000,0000*55
$GPRMC,025843.000,A,3717.3179,N,12201.9302,W,0.42,342.68,250713,,,D*78
$PGTOP,11,2*6E
$GPGGA,025844.000,3717.3180,N,12201.9303,W,2,7,1.14,88.5,M,-25.9,M,0000,0000*56
$GPRMC,025844.000,A,3717.3180,N,12201.9303,W,0.14,342.68,250713,,,D*7B
$PGTOP,11,2*6E
$GPGGA,025845.000,3717.3180,N,12201.9303,W,2,7,1.14,88.5,M,-25.9,M,0000,0000*57
$GPRMC,025845.000,A,3717.3180,N,12201.9303,W,0.80,102.48,250713,,,D*73
$PGTOP,11,2*6E
$GPGGA,025846.000,3717.3178,N,12201.9299,W,2,7,1.14,88.4,M,-25.9,M,0000,0000*50
$GPRMC,025846.000,A,3717.3178,N,12201.9299,W,1.10,116.69,250713,,,D*7B
$PGTOP,11,2*6E
$GPGGA,025847.000,3717.3176,N,12201.9296,W,2,7,1.14,88.3,M,-25.9,M,0000,0000*57
$GPRMC,025847.000,A,3717.3176,N,12201.9296,W,0.92,118.76,250713,,,D*70
$PGTOP,11,2*6E
$GPGGA,025848.000,3717.3173,N,12201.9294,W,2,7,1.14,88.2,M,-25.9,M,0000,0000*5E
$GPRMC,025848.000,A,3717.3173,N,12201.9294,W,0.99,120.47,250713,,,D*7A
$PGTOP,11,2*6E
$GPGGA,025849.000,3717.3172,N,12201.9293,W,2,6,1.44,88.1,M,-25.9,M,0000,0000*5E
$GPRMC,025849.000,A,3717.3172,N,12201.9293,W,0.32,120.47,250713,,,D*7C
$PGTOP,11,2*6E
$GPGGA,025850.000,3717.3171,N,12201.9294,W,2,6,1.44,88.0,M,-25.9,M,0000,0000*53
$GPRMC,025850.000,A,3717.3171,N,12201.9294,W,0.14,120.47,250713,,,D*74
$PGTOP,11,2*6E
$GPGGA,025851.000,3717.3170,N,12201.9295,W,2,7,1.14,88.0,M,-25.9,M,0000,0000*56
$GPRMC,025851.000,A,3717.3170,N,12201.9295,W,0.16,120.47,250713,,,D*77
$PGTOP,11,2*6E
$GPGGA,025852.000,3717.3171,N,12201.9300,W,2,7,1.14,87.9,M,-25.9,M,0000,0000*5F
$GPRMC,025852.000,A,3717.3171,N,12201.9300,W,0.66,288.37,250713,,,D*79
$PGTOP,11,2*6E
$GPGGA,025853.000,3717.3171,N,12201.9303,W,2,7,1.14,87.8,M,-25.9,M,0000,0000*5C
$GPRMC,025853.000,A,3717.3171,N,12201.9303,W,0.69,290.11,250713,,,D*79
$PGTOP,11,2*6E
$GPGGA,025854.000,3717.3172,N,12201.9306,W,2,7,1.14,87.8,M,-25.9,M,0000,0000*5D
$GPRMC,025854.000,A,3717.3172,N,12201.9306,W,0.68,291.05,250713,,,D*7D
$PGTOP,11,2*6E
$GPGGA,025855.000,3717.3174,N,12201.9308,W,2,7,1.14,87.7,M,-25.9,M,0000,0000*5B
$GPRMC,025855.000,A,3717.3174,N,12201.9308,W,1.01,293.13,250713,,,D*7F
$PGTOP,11,2*6E
$GPGGA,025856.000,3717.3175,N,12201.9310,W,2,7,1.14,87.7,M,-25.9,M,0000,0000*50
$GPRMC,025856.000,A,3717.3175,N,12201.9310,W,0.96,293.74,250713,,,D*7A
$PGTOP,11,2*6E
$GPGGA,025857.000,3717.3174,N,12201.9311,W,2,7,1.14,87.6,M,-25.9,M,0000,0000*50
$GPRMC,025857.000,A,3717.3174,N,12201.9311,W,0.49,293.74,250713,,,D*79
$PGTOP,11,2*6E
$GPGGA,025858.000,3717.3173,N,12201.9310,W,2,7,1.14,87.5,M,-25.9,M,0000,0000*5A
$GPRMC,025858.000,A,3717.3173,N,12201.9310,W,0.43,294.50,250713,,,D*7B
$PGTOP,11,2*6E
$GPGGA,025859.000,3717.3175,N,12201.9312,W,2,7,1.14,87.5,M,-25.9,M,0000,0000*5F
$GPRMC,025859.000,A,3717.3175,N,12201.9312,W,0.82,296.45,250713,,,D*75
$PGTOP,11,2*6E
$GPGGA,025900.000,3717.3176,N,12201.9312,W,2,7,1.14,87.4,M,-25.9,M,0000,0000*50
$GPRMC,025900.000,A,3717.3176,N,12201.9312,W,0.76,297.77,250713,,,D*70
$PGTOP,11,2*6E
$GPGGA,025901.000,3717.3176,N,12201.9311,W,2,7,1.14,87.4,M,-25.9,M,0000,0000*52
$GPRMC,025901.000,A,3717.3176,N,12201.9311,W,0.45,297.77,250713,,,D*72
$PGTOP,11,2*6E
$GPGGA,025902.000,3717.3175,N,12201.9308,W,2,7,1.14,87.4,M,-25.9,M,0000,0000*5A
$GPRMC,025902.000,A,3717.3175,N,12201.9308,W,0.48,297.77,250713,,,D*77
$PGTOP,11,2*6E
$GPGGA,025903.000,3717.3173,N,12201.9302,W,2,7,1.14,87.4,M,-25.9,M,0000,0000*57
$GPRMC,025903.000,A,3717.3173,N,12201.9302,W,1.00,153.25,250713,,,D*7B
$PGTOP,11,2*6E
$GPGGA,025904.000,3717.3175,N,12201.9302,W,2,7,1.14,87.3,M,-25.9,M,0000,0000*51
$GPRMC,025904.000,A,3717.3175,N,12201.9302,W,0.07,153.25,250713,,,D*7C
$PGTOP,11,2*6E
$GPGGA,025905.000,3717.3177,N,12201.9304,W,2,7,1.14,87.3,M,-25.9,M,0000,0000*54
$GPRMC,025905.000,A,3717.3177,N,12201.9304,W,0.33,153.25,250713,,,D*7E
$PGTOP,11,2*6E
$GPGGA,025906.000,3717.3178,N,12201.9301,W,2,7,1.14,87.2,M,-25.9,M,0000,0000*5C
$GPRMC,025906.000,A,3717.3178,N,12201.9301,W,0.08,153.25,250713,,,D*7F
$PGTOP,11,2*6E
$GPGGA,025907.000,3717.3178,N,12201.9300,W,2,7,1.14,87.1,M,-25.9,M,0000,0000*5F
$GPRMC,025907.000,A,3717.3178,N,12201.9300,W,0.53,153.25,250713,,,D*71
$PGTOP,11,2*6E
$GPGGA,025908.000,3717.3179,N,12201.9302,W,2,7,1.14,87.1,M,-25.9,M,0000,0000*53
$GPRMC,025908.000,A,3717.3179,N,12201.9302,W,0.31,153.25,250713,,,D*79
$PGTOP,11,2*6E
$GPGGA,025909.000,3717.3180,N,12201.9302,W,2,7,1.14,87.1,M,-25.9,M,0000,0000*54
$GPRMC,025909.000,A,3717.3180,N,12201.9302,W,0.38,153.25,250713,,,D*77
$PGTOP,11,2*6E
$GPGGA,025910.000,3717.3180,N,12201.9303,W,2,7,1.14,87.0,M,-25.9,M,0000,0000*5C
$GPRMC,025910.000,A,3717.3180,N,12201.9303,W,0.46,153.25,250713,,,D*77
$PGTOP,11,2*6E
$GPGGA,025911.000,3717.3178,N,12201.9303,W,2,7,1.14,87.0,M,-25.9,M,0000,0000*5A
$GPRMC,025911.000,A,3717.3178,N,12201.9303,W,0.48,153.25,250713,,,D*7F
$PGTOP,11,2*6E
$GPGGA,025912.000,3717.3177,N,12201.9302,W,2,7,1.14,87.0,M,-25.9,M,0000,0000*57
$GPRMC,025912.000,A,3717.3177,N,12201.9302,W,0.74,133.40,250713,,,D*78
$PGTOP,11,2*6E
$GPGGA,025913.000,3717.3177,N,12201.9301,W,2,7,1.14,87.0,M,-25.9,M,0000,0000*55
$GPRMC,025913.000,A,3717.3177,N,12201.9301,W,0.37,133.40,250713,,,D*7D
$PGTOP,11,2*6E
$GPGGA,025914.000,3717.3176,N,12201.9299,W,2,7,1.14,86.9,M,-25.9,M,0000,0000*5B
$GPRMC,025914.000,A,3717.3176,N,12201.9299,W,0.39,133.40,250713,,,D*75
$PGTOP,11,2*6E
$GPGGA,025915.000,3717.3177,N,12201.9302,W,2,7,1.14,86.9,M,-25.9,M,0000,0000*58
$GPRMC,025915.000,A,3717.3177,N,12201.9302,W,0.32,133.40,250713,,,D*7D
$PGTOP,11,2*6E
$GPGGA,025916.000,3717.3180,N,12201.9307,W,2,7,1.14,86.7,M,-25.9,M,0000,0000*58
$GPRMC,025916.000,A,3717.3180,N,12201.9307,W,1.73,3.55,250713,,,D*71
$PGTOP,11,2*6E
$GPGGA,025917.000,3717.3184,N,12201.9311,W,2,7,1.14,86.8,M,-25.9,M,0000,0000*55
$GPRMC,025917.000,A,3717.3184,N,12201.9311,W,1.78,348.77,250713,,,D*74
$PGTOP,11,2*6E
$GPGGA,025918.000,3717.3183,N,12201.9308,W,2,7,1.14,86.8,M,-25.9,M,0000,0000*55
$GPRMC,025918.000,A,3717.3183,N,12201.9308,W,0.45,348.77,250713,,,D*7B
$PGTOP,11,2*6E
$GPGGA,025919.000,3717.3181,N,12201.9304,W,2,7,1.14,86.7,M,-25.9,M,0000,0000*55
$GPRMC,025919.000,A,3717.3181,N,12201.9304,W,1.61,171.09,250713,,,D*72
$PGTOP,11,2*6E
$GPGGA,025920.000,3717.3177,N,12201.9299,W,2,7,1.14,86.6,M,-25.9,M,0000,0000*52
$GPRMC,025920.000,A,3717.3177,N,12201.9299,W,1.67,170.34,250713,,,D*7D
$PGTOP,11,2*6E
$GPGGA,025921.000,3717.3176,N,12201.9297,W,2,7,1.14,86.5,M,-25.9,M,0000,0000*5F
$GPRMC,025921.000,A,3717.3176,N,12201.9297,W,1.09,168.60,250713,,,D*73
$PGTOP,11,2*6E
$GPGGA,025922.000,3717.3174,N,12201.9297,W,2,7,1.14,86.2,M,-25.9,M,0000,0000*59
$GPRMC,025922.000,A,3717.3174,N,12201.9297,W,0.47,168.60,250713,,,D*79
$PGTOP,11,2*6E
$GPGGA,025923.000,3717.3177,N,12201.9300,W,2,7,1.14,86.1,M,-25.9,M,0000,0000*57
$GPRMC,025923.000,A,3717.3177,N,12201.9300,W,1.81,6.28,250713,,,D*7A
$PGTOP,11,2*6E
$GPGGA,025924.000,3717.3180,N,12201.9304,W,2,7,1.14,86.2,M,-25.9,M,0000,0000*5F
$GPRMC,025924.000,A,3717.3180,N,12201.9304,W,1.26,318.75,250713,,,D*78
$PGTOP,11,2*6E
$GPGGA,025925.000,3717.3184,N,12201.9307,W,2,7,1.14,86.4,M,-25.9,M,0000,0000*5F
$GPRMC,025925.000,A,3717.3184,N,12201.9307,W,1.30,314.58,250713,,,D*7A
$PGTOP,11,2*6E
$GPGGA,025926.000,3717.3184,N,12201.9309,W,2,7,1.14,86.4,M,-25.9,M,0000,0000*52
$GPRMC,025926.000,A,3717.3184,N,12201.9309,W,1.31,307.33,250713,,,D*79
$PGTOP,11,2*6E
$GPGGA,025927.000,3717.3184,N,12201.9310,W,2,7,1.14,86.4,M,-25.9,M,0000,0000*5B
$GPRMC,025927.000,A,3717.3184,N,12201.9310,W,0.74,215.76,250713,,,D*73
$PGTOP,11,2*6E
$GPGGA,025928.000,3717.3182,N,12201.9309,W,2,7,1.14,86.2,M,-25.9,M,0000,0000*5C
$GPRMC,025928.000,A,3717.3182,N,12201.9309,W,0.70,209.72,250713,,,D*7F
$PGTOP,11,2*6E
$GPGGA,025929.000,3717.3182,N,12201.9310,W,2,7,1.14,85.9,M,-25.9,M,0000,0000*5D
$GPRMC,025929.000,A,3717.3182,N,12201.9310,W,0.76,62.38,250713,,,D*41
